{
"type": "FeatureCollection",
"name": "bases",
"crs": { "type": "name", "properties": { "name": "urn:ogc:def:crs:OGC:1.3:CRS84" } },
"features": [
{ "type": "Feature", "properties": { "Id": 0, "Name": "BHAGTANWAL", "Abbr_3": "BGT", "Country": "Pakistan", "Remarks": "Air Base", "lat": 32.05713, "long": 72.95068, "elev": 185.935608, "CountryID": 165, "LayerOrder": "3" }, "geometry": { "type": "Point", "coordinates": [ 72.95068, 32.05713 ] } },
{ "type": "Feature", "properties": { "Id": 0, "Name": "NUR KHAN", "Abbr_3": "NRK", "Country": "Pakistan", "Remarks": "Air Base", "lat": 33.6147, "long": 73.0967, "elev": 496.954223, "CountryID": 165, "LayerOrder": "2,3" }, "geometry": { "type": "Point", "coordinates": [ 73.0967, 33.6147 ] } },
{ "type": "Feature", "properties": { "Id": 0, "Name": "CHANDAR", "Abbr_3": "CDR", "Country": "Pakistan", "Remarks": "Air Base", "lat": 32.0792, "long": 73.7942, "elev": 210.99426, "CountryID": 165, "LayerOrder": "3" }, "geometry": { "type": "Point", "coordinates": [ 73.7942, 32.0792 ] } },
{ "type": "Feature", "properties": { "Id": 0, "Name": "FAISAL", "Abbr_3": "FSL", "Country": "Pakistan", "Remarks": "Air Base", "lat": 24.875, "long": 67.1194, "elev": 6.987794, "CountryID": 165, "LayerOrder": "3" }, "geometry": { "type": "Point", "coordinates": [ 67.1194, 24.875 ] } },
{ "type": "Feature", "properties": { "Id": 0, "Name": "KOHAT", "Abbr_3": "KHT", "Country": "Pakistan", "Remarks": "Air Base", "lat": 33.57346551, "long": 71.43800321000001, "elev": 495.665963, "CountryID": 165, "LayerOrder": "3" }, "geometry": { "type": "Point", "coordinates": [ 71.43800321, 33.57346551 ] } },
{ "type": "Feature", "properties": { "Id": 0, "Name": "LAHORE", "Abbr_3": "LHR", "Country": "Pakistan", "Remarks": "Air Base", "lat": 31.52142878, "long": 74.40457468, "elev": 175.984001, "CountryID": 165, "LayerOrder": "3" }, "geometry": { "type": "Point", "coordinates": [ 74.40457468, 31.52142878 ] } },
{ "type": "Feature", "properties": { "Id": 0, "Name": "MASROOR", "Abbr_3": "MSR", "Country": "Pakistan", "Remarks": "Air Base", "lat": 24.89850579, "long": 66.93947565000001, "elev": 11.267384, "CountryID": 165, "LayerOrder": "3" }, "geometry": { "type": "Point", "coordinates": [ 66.93947565, 24.89850579 ] } },
{ "type": "Feature", "properties": { "Id": 0, "Name": "M M ALAM", "Abbr_3": "ALM", "Country": "Pakistan", "Remarks": "Air Base", "lat": 32.56243, "long": 71.57282, "elev": 204.713224, "CountryID": 165, "LayerOrder": "3" }, "geometry": { "type": "Point", "coordinates": [ 71.57282, 32.56243 ] } },
{ "type": "Feature", "properties": { "Id": 0, "Name": "MIRPURKHAS", "Abbr_3": "MPK", "Country": "Pakistan", "Remarks": "Air Base", "lat": 25.6832, "long": 69.07345, "elev": 9.971763, "CountryID": 165, "LayerOrder": "3" }, "geometry": { "type": "Point", "coordinates": [ 69.07345, 25.6832 ] } },
{ "type": "Feature", "properties": { "Id": 0, "Name": "MINHAS", "Abbr_3": "MHS", "Country": "Pakistan", "Remarks": "Air Base", "lat": 33.86933983, "long": 72.40077038, "elev": 296.065146, "CountryID": 165, "LayerOrder": "2,3" }, "geometry": { "type": "Point", "coordinates": [ 72.40077038, 33.86933983 ] } },
{ "type": "Feature", "properties": { "Id": 0, "Name": "MULTAN", "Abbr_3": "MTN", "Country": "Pakistan", "Remarks": "Air Base", "lat": 30.2028, "long": 71.4181, "elev": 106.533456, "CountryID": 165, "LayerOrder": "3" }, "geometry": { "type": "Point", "coordinates": [ 71.4181, 30.2028 ] } },
{ "type": "Feature", "properties": { "Id": 0, "Name": "MURID", "Abbr_3": "MRD", "Country": "Pakistan", "Remarks": "Air Base", "lat": 32.91027172, "long": 72.77442975, "elev": 523.655201, "CountryID": 165, "LayerOrder": "3" }, "geometry": { "type": "Point", "coordinates": [ 72.77442975, 32.91027172 ] } },
{ "type": "Feature", "properties": { "Id": 0, "Name": "MUSHAF", "Abbr_3": "MSF", "Country": "Pakistan", "Remarks": "Air Base", "lat": 32.04872015, "long": 72.6651996, "elev": 182.405091, "CountryID": 165, "LayerOrder": "2,3" }, "geometry": { "type": "Point", "coordinates": [ 72.6651996, 32.04872015 ] } },
{ "type": "Feature", "properties": { "Id": 0, "Name": "NAWABSHAH", "Abbr_3": "NSH", "Country": "Pakistan", "Remarks": "Air Base", "lat": 26.2194, "long": 68.38994899, "elev": 18.999863, "CountryID": 165, "LayerOrder": "3" }, "geometry": { "type": "Point", "coordinates": [ 68.38994899, 26.2194 ] } },
{ "type": "Feature", "properties": { "Id": 0, "Name": "PASNI", "Abbr_3": "PNI", "Country": "Pakistan", "Remarks": "Air Base", "lat": 25.29034816, "long": 63.34486649, "elev": 11.090346, "CountryID": 165, "LayerOrder": "3" }, "geometry": { "type": "Point", "coordinates": [ 63.34486649, 25.29034816 ] } },
{ "type": "Feature", "properties": { "Id": 0, "Name": "PESHAWAR", "Abbr_3": "PSH", "Country": "Pakistan", "Remarks": "Air Base", "lat": 33.9933, "long": 71.515, "elev": 341.051771, "CountryID": 165, "LayerOrder": "2,3" }, "geometry": { "type": "Point", "coordinates": [ 71.515, 33.9933 ] } },
{ "type": "Feature", "properties": { "Id": 0, "Name": "QADRI", "Abbr_3": "QDI", "Country": "Pakistan", "Remarks": "Air Base", "lat": 35.33955966, "long": 75.54111612, "elev": 2195.623622, "CountryID": 165, "LayerOrder": "2,3" }, "geometry": { "type": "Point", "coordinates": [ 75.54111612, 35.33955966 ] } },
{ "type": "Feature", "properties": { "Id": 0, "Name": "RAFIQUI", "Abbr_3": "RAF", "Country": "Pakistan", "Remarks": "Air Base", "lat": 30.7618359, "long": 72.28135288, "elev": 154.910366, "CountryID": 165, "LayerOrder": "3" }, "geometry": { "type": "Point", "coordinates": [ 72.28135288, 30.7618359 ] } },
{ "type": "Feature", "properties": { "Id": 0, "Name": "FARID", "Abbr_3": "FRD", "Country": "Pakistan", "Remarks": "Air Base", "lat": 29.26367818, "long": 70.18617628, "elev": 42.784475, "CountryID": 165, "LayerOrder": "3" }, "geometry": { "type": "Point", "coordinates": [ 70.18617628, 29.26367818 ] } },
{ "type": "Feature", "properties": { "Id": 0, "Name": "RISALEWALA", "Abbr_3": "RWA", "Country": "Pakistan", "Remarks": "Air Base", "lat": 31.36466402, "long": 72.99494859000001, "elev": 176.956077, "CountryID": 165, "LayerOrder": "3" }, "geometry": { "type": "Point", "coordinates": [ 72.99494859, 31.36466402 ] } },
{ "type": "Feature", "properties": { "Id": 0, "Name": "RISALPUR", "Abbr_3": "RIS", "Country": "Pakistan", "Remarks": "Air Base", "lat": 34.07965226, "long": 71.97061406, "elev": 305.020079, "CountryID": 165, "LayerOrder": "2,3" }, "geometry": { "type": "Point", "coordinates": [ 71.97061406, 34.07965226 ] } },
{ "type": "Feature", "properties": { "Id": 0, "Name": "SHAHBAZ", "Abbr_3": "SHB", "Country": "Pakistan", "Remarks": "Air Base", "lat": 28.28067599, "long": 68.45222537, "elev": 48.777871, "CountryID": 165, "LayerOrder": "3" }, "geometry": { "type": "Point", "coordinates": [ 68.45222537, 28.28067599 ] } },
{ "type": "Feature", "properties": { "Id": 0, "Name": "SHAMSI", "Abbr_3": "SMI", "Country": "Pakistan", "Remarks": "Air Base", "lat": 27.84574965, "long": 65.15922376, "elev": 769.992423, "CountryID": 165, "LayerOrder": "3" }, "geometry": { "type": "Point", "coordinates": [ 65.15922376, 27.84574965 ] } },
{ "type": "Feature", "properties": { "Id": 0, "Name": "SAMUNGLI", "Abbr_3": "SMG", "Country": "Pakistan", "Remarks": "Air Base", "lat": 30.25362593, "long": 66.93708419, "elev": 1581.969161, "CountryID": 165, "LayerOrder": "3" }, "geometry": { "type": "Point", "coordinates": [ 66.93708419, 30.25362593 ] } },
{ "type": "Feature", "properties": { "Id": 0, "Name": "SUKKUR", "Abbr_3": "SKK", "Country": "Pakistan", "Remarks": "Air Base", "lat": 27.7236, "long": 68.7903, "elev": 57.416972, "CountryID": 165, "LayerOrder": "3" }, "geometry": { "type": "Point", "coordinates": [ 68.7903, 27.7236 ] } },
{ "type": "Feature", "properties": { "Id": 0, "Name": "TALHAR", "Abbr_3": "TLR", "Country": "Pakistan", "Remarks": "Air Base", "lat": 24.84205333, "long": 68.83819213, "elev": 9.819437, "CountryID": 165, "LayerOrder": "3" }, "geometry": { "type": "Point", "coordinates": [ 68.83819213, 24.84205333 ] } },
{ "type": "Feature", "properties": { "Id": 0, "Name": "VEHARI", "Abbr_3": "VEH", "Country": "Pakistan", "Remarks": "Air Base", "lat": 30.09142, "long": 72.15378, "elev": 134.240429, "CountryID": 165, "LayerOrder": "3" }, "geometry": { "type": "Point", "coordinates": [ 72.15378, 30.09142 ] } },
{ "type": "Feature", "properties": { "Id": 0, "Name": "SAIDU-SHAR", "Abbr_3": "SDU", "Country": "Pakistan", "Remarks": "Air Base", "lat": 34.81249968, "long": 72.35280461000001, "elev": 947.785453, "CountryID": 165, "LayerOrder": "3" }, "geometry": { "type": "Point", "coordinates": [ 72.35280461, 34.81249968 ] } },
{ "type": "Feature", "properties": { "Id": 0, "Name": "RAHIM-YAR", "Abbr_3": "RYK", "Country": "Pakistan", "Remarks": "Air Base", "lat": 28.42670754, "long": 70.29959352, "elev": 80.094202, "CountryID": 165, "LayerOrder": "3" }, "geometry": { "type": "Point", "coordinates": [ 70.29959352, 28.42670754 ] } },
{ "type": "Feature", "properties": { "Id": 0, "Name": "DERA-ISMAI", "Abbr_3": "DIK", "Country": "Pakistan", "Remarks": "Air Base", "lat": 31.90970079, "long": 70.89719977, "elev": 170.934469, "CountryID": 165, "LayerOrder": "3" }, "geometry": { "type": "Point", "coordinates": [ 70.89719977, 31.90970079 ] } },
{ "type": "Feature", "properties": { "Id": 0, "Name": "TURBAT", "Abbr_3": "TBT", "Country": "Pakistan", "Remarks": "Air Base", "lat": 25.9833, "long": 63.0319, "elev": 141.772897, "CountryID": 165, "LayerOrder": "3" }, "geometry": { "type": "Point", "coordinates": [ 63.0319, 25.9833 ] } },
{ "type": "Feature", "properties": { "Id": 0, "Name": "RAHWALI", "Abbr_3": "RWI", "Country": "Pakistan", "Remarks": "Air Base", "lat": 32.238906, "long": 74.131112, "elev": 220.689924, "CountryID": 165, "LayerOrder": "3" }, "geometry": { "type": "Point", "coordinates": [ 74.131112, 32.238906 ] } },
{ "type": "Feature", "properties": { "Id": 0, "Name": "BHOLARI", "Abbr_3": "BLR", "Country": "Pakistan", "Remarks": "Air Base", "lat": 25.24570278, "long": 68.03693056, "elev": 44.597575, "CountryID": 165, "LayerOrder": "2,3" }, "geometry": { "type": "Point", "coordinates": [ 68.03693056, 25.24570278 ] } },
{ "type": "Feature", "properties": { "Id": 0, "Name": "ABU ROAD", "Abbr_3": "ABU", "Country": "India", "Remarks": "Air Base", "lat": 24.494265, "long": 72.781529, "elev": -0.007309, "CountryID": 99, "LayerOrder": "3" }, "geometry": { "type": "Point", "coordinates": [ 72.781529, 24.494265 ] } },
{ "type": "Feature", "properties": { "Id": 0, "Name": "ADAMPUR", "Abbr_3": "ADM", "Country": "India", "Remarks": "Air Base", "lat": 31.4333, "long": 75.7611, "elev": -0.007724, "CountryID": 99, "LayerOrder": "3" }, "geometry": { "type": "Point", "coordinates": [ 75.7611, 31.4333 ] } },
{ "type": "Feature", "properties": { "Id": 0, "Name": "AGRA", "Abbr_3": "ARA", "Country": "India", "Remarks": "Air Base", "lat": 27.157732, "long": 77.960937, "elev": -0.007612, "CountryID": 99, "LayerOrder": "3" }, "geometry": { "type": "Point", "coordinates": [ 77.960937, 27.157732 ] } },
{ "type": "Feature", "properties": { "Id": 0, "Name": "AHMEDABAD", "Abbr_3": "ABD", "Country": "India", "Remarks": "Air Base", "lat": 23.0722, "long": 72.6333, "elev": -0.010239, "CountryID": 99, "LayerOrder": "3" }, "geometry": { "type": "Point", "coordinates": [ 72.6333, 23.0722 ] } },
{ "type": "Feature", "properties": { "Id": 0, "Name": "AKOLA", "Abbr_3": "AKL", "Country": "India", "Remarks": "Air Base", "lat": 20.699099, "long": 77.05761, "elev": -3367.491305, "CountryID": 99, "LayerOrder": "3" }, "geometry": { "type": "Point", "coordinates": [ 77.05761, 20.699099 ] } },
{ "type": "Feature", "properties": { "Id": 0, "Name": "ALLAHABAD", "Abbr_3": "ALB", "Country": "India", "Remarks": "Air Base", "lat": 25.438645, "long": 81.736653, "elev": -325.519037, "CountryID": 99, "LayerOrder": "3" }, "geometry": { "type": "Point", "coordinates": [ 81.736653, 25.438645 ] } },
{ "type": "Feature", "properties": { "Id": 0, "Name": "AMBALA", "Abbr_3": "AMB", "Country": "India", "Remarks": "Air Base", "lat": 30.3711, "long": 76.8189, "elev": -0.008269, "CountryID": 99, "LayerOrder": "3" }, "geometry": { "type": "Point", "coordinates": [ 76.8189, 30.3711 ] } },
{ "type": "Feature", "properties": { "Id": 0, "Name": "AMLA", "Abbr_3": "AML", "Country": "India", "Remarks": "Air Base", "lat": 21.926026, "long": 78.113976, "elev": -2406.669491, "CountryID": 99, "LayerOrder": "3" }, "geometry": { "type": "Point", "coordinates": [ 78.113976, 21.926026 ] } },
{ "type": "Feature", "properties": { "Id": 0, "Name": "AMRITSAR", "Abbr_3": "AMT", "Country": "India", "Remarks": "Air Base", "lat": 31.7069, "long": 74.7972, "elev": 216.919935, "CountryID": 99, "LayerOrder": "2,3" }, "geometry": { "type": "Point", "coordinates": [ 74.7972, 31.7069 ] } },
{ "type": "Feature", "properties": { "Id": 0, "Name": "AWANTIPUR", "Abbr_3": "AWN", "Country": "India", "Remarks": "Air Base", "lat": 33.88, "long": 74.9783, "elev": 1643.62688, "CountryID": 99, "LayerOrder": "2,3" }, "geometry": { "type": "Point", "coordinates": [ 74.9783, 33.88 ] } },
{ "type": "Feature", "properties": { "Id": 0, "Name": "BAKSHI/ IAF AIRSTRIP", "Abbr_3": "BKH", "Country": "India", "Remarks": "Air Base", "lat": 26.988728, "long": 80.892346, "elev": -675.829836, "CountryID": 99, "LayerOrder": "3" }, "geometry": { "type": "Point", "coordinates": [ 80.892346, 26.988728 ] } },
{ "type": "Feature", "properties": { "Id": 0, "Name": "BAND TAL", "Abbr_3": "BDT", "Country": "India", "Remarks": "Air Base", "lat": 26.000107, "long": 78.261799, "elev": -829.617184, "CountryID": 99, "LayerOrder": "3" }, "geometry": { "type": "Point", "coordinates": [ 78.261799, 26.000107 ] } },
{ "type": "Feature", "properties": { "Id": 0, "Name": "BANSWARA", "Abbr_3": "BSW", "Country": "India", "Remarks": "Air Base", "lat": 23.5892, "long": 74.3151, "elev": -0.011513, "CountryID": 99, "LayerOrder": "3" }, "geometry": { "type": "Point", "coordinates": [ 74.3151, 23.5892 ] } },
{ "type": "Feature", "properties": { "Id": 0, "Name": "BAREILLY", "Abbr_3": "BRY", "Country": "India", "Remarks": "Air Base", "lat": 28.4225, "long": 79.4501, "elev": -688.835177, "CountryID": 99, "LayerOrder": "3" }, "geometry": { "type": "Point", "coordinates": [ 79.4501, 28.4225 ] } },
{ "type": "Feature", "properties": { "Id": 0, "Name": "CHINYALI SAUR/MAA GANGA", "Abbr_3": "BKT", "Country": "India", "Remarks": "Air Base", "lat": 30.583179, "long": 78.32297, "elev": -662.978473, "CountryID": 99, "LayerOrder": "3" }, "geometry": { "type": "Point", "coordinates": [ 78.32297, 30.583179 ] } },
{ "type": "Feature", "properties": { "Id": 0, "Name": "BHATINDA", "Abbr_3": "BTD", "Country": "India", "Remarks": "Air Base", "lat": 30.2694, "long": 74.7583, "elev": 189.997378, "CountryID": 99, "LayerOrder": "3" }, "geometry": { "type": "Point", "coordinates": [ 74.7583, 30.2694 ] } },
{ "type": "Feature", "properties": { "Id": 0, "Name": "BHAVNAGAR", "Abbr_3": "BVN", "Country": "India", "Remarks": "Air Base", "lat": 21.7536, "long": 72.1867, "elev": -2971.496896, "CountryID": 99, "LayerOrder": "3" }, "geometry": { "type": "Point", "coordinates": [ 72.1867, 21.7536 ] } },
{ "type": "Feature", "properties": { "Id": 0, "Name": "BHILAI /NANDINI", "Abbr_3": "BHL", "Country": "India", "Remarks": "Air Base", "lat": 21.294446, "long": 81.379761, "elev": -2277.508563, "CountryID": 99, "LayerOrder": "3" }, "geometry": { "type": "Point", "coordinates": [ 81.379761, 21.294446 ] } },
{ "type": "Feature", "properties": { "Id": 0, "Name": "BHILWARA", "Abbr_3": "BLW", "Country": "India", "Remarks": "Air Base", "lat": 28.0778, "long": 76.2056, "elev": -0.010616, "CountryID": 99, "LayerOrder": "3" }, "geometry": { "type": "Point", "coordinates": [ 76.2056, 28.0778 ] } },
{ "type": "Feature", "properties": { "Id": 0, "Name": "BHIWANI", "Abbr_3": "BWN", "Country": "India", "Remarks": "Air Base", "lat": 28.8358, "long": 76.1778, "elev": -0.011263, "CountryID": 99, "LayerOrder": "3" }, "geometry": { "type": "Point", "coordinates": [ 76.1778, 28.8358 ] } },
{ "type": "Feature", "properties": { "Id": 0, "Name": "BHOPAL", "Abbr_3": "BHP", "Country": "India", "Remarks": "Air Base", "lat": 23.287357, "long": 77.333015, "elev": -0.007568, "CountryID": 99, "LayerOrder": "3" }, "geometry": { "type": "Point", "coordinates": [ 77.333015, 23.287357 ] } },
{ "type": "Feature", "properties": { "Id": 0, "Name": "BHUJ", "Abbr_3": "BHJ", "Country": "India", "Remarks": "Air Base", "lat": 23.2875, "long": 69.6706, "elev": -0.009799, "CountryID": 99, "LayerOrder": "2,3" }, "geometry": { "type": "Point", "coordinates": [ 69.6706, 23.2875 ] } },
{ "type": "Feature", "properties": { "Id": 0, "Name": "BHUNTAR", "Abbr_3": "BNT", "Country": "India", "Remarks": "Air Base", "lat": 31.875, "long": 77.1556, "elev": -0.010472, "CountryID": 99, "LayerOrder": "3" }, "geometry": { "type": "Point", "coordinates": [ 77.1556, 31.875 ] } },
{ "type": "Feature", "properties": { "Id": 0, "Name": "BILASPUR", "Abbr_3": "BLP", "Country": "India", "Remarks": "Air Base", "lat": 21.98994, "long": 82.111093, "elev": -2180.734563, "CountryID": 99, "LayerOrder": "3" }, "geometry": { "type": "Point", "coordinates": [ 82.111093, 21.98994 ] } },
{ "type": "Feature", "properties": { "Id": 0, "Name": "NADGA", "Abbr_3": "BLG", "Country": "India", "Remarks": "Air Base", "lat": 23.44692, "long": 75.420355, "elev": -0.009916, "CountryID": 99, "LayerOrder": "3" }, "geometry": { "type": "Point", "coordinates": [ 75.420355, 23.44692 ] } },
{ "type": "Feature", "properties": { "Id": 0, "Name": "BURHAR", "Abbr_3": "BRH", "Country": "India", "Remarks": "Air Base", "lat": 23.235009, "long": 81.503486, "elev": -541.816133, "CountryID": 99, "LayerOrder": "3" }, "geometry": { "type": "Point", "coordinates": [ 81.503486, 23.235009 ] } },
{ "type": "Feature", "properties": { "Id": 0, "Name": "CHANDIGARH", "Abbr_3": "CHN", "Country": "India", "Remarks": "Air Base", "lat": 30.6778, "long": 76.7867, "elev": -0.011083, "CountryID": 99, "LayerOrder": "3" }, "geometry": { "type": "Point", "coordinates": [ 76.7867, 30.6778 ] } },
{ "type": "Feature", "properties": { "Id": 0, "Name": "CHORHATA/REWA HAWAI PATTI", "Abbr_3": "CRH", "Country": "India", "Remarks": "Air Base", "lat": 24.5034, "long": 81.2203, "elev": -759.671912, "CountryID": 99, "LayerOrder": "3" }, "geometry": { "type": "Point", "coordinates": [ 81.2203, 24.5034 ] } },
{ "type": "Feature", "properties": { "Id": 0, "Name": "DEVI AHILYABAI HOLKAR", "Abbr_3": "DAH", "Country": "India", "Remarks": "Air Base", "lat": 22.7217, "long": 75.8011, "elev": -167.006668, "CountryID": 99, "LayerOrder": "3" }, "geometry": { "type": "Point", "coordinates": [ 75.8011, 22.7217 ] } },
{ "type": "Feature", "properties": { "Id": 0, "Name": "DAMAN", "Abbr_3": "DMN", "Country": "India", "Remarks": "Air Base", "lat": 20.4344, "long": 72.8432, "elev": -2094.836703, "CountryID": 99, "LayerOrder": "3" }, "geometry": { "type": "Point", "coordinates": [ 72.8432, 20.4344 ] } },
{ "type": "Feature", "properties": { "Id": 0, "Name": "DEHRADUN", "Abbr_3": "DDN", "Country": "India", "Remarks": "Air Base", "lat": 30.1908, "long": 78.1733, "elev": -823.75594, "CountryID": 99, "LayerOrder": "3" }, "geometry": { "type": "Point", "coordinates": [ 78.1733, 30.1908 ] } },
{ "type": "Feature", "properties": { "Id": 0, "Name": "DHANA", "Abbr_3": "DHN", "Country": "India", "Remarks": "Air Base", "lat": 23.7544, "long": 78.8557, "elev": -296.124679, "CountryID": 99, "LayerOrder": "3" }, "geometry": { "type": "Point", "coordinates": [ 78.8557, 23.7544 ] } },
{ "type": "Feature", "properties": { "Id": 0, "Name": "DHULIA/DHULE", "Abbr_3": "DHL", "Country": "India", "Remarks": "Air Base", "lat": 20.9265, "long": 74.7371, "elev": -3521.865541, "CountryID": 99, "LayerOrder": "3" }, "geometry": { "type": "Point", "coordinates": [ 74.7371, 20.9265 ] } },
{ "type": "Feature", "properties": { "Id": 0, "Name": "DIU", "Abbr_3": "DIU", "Country": "India", "Remarks": "Air Base", "lat": 20.7139, "long": 70.9215, "elev": -2909.568612, "CountryID": 99, "LayerOrder": "3" }, "geometry": { "type": "Point", "coordinates": [ 70.9215, 20.7139 ] } },
{ "type": "Feature", "properties": { "Id": 0, "Name": "FARKHOR", "Abbr_3": "FKR", "Country": "India", "Remarks": "Air Base", "lat": 37.4707, "long": 69.3813, "elev": -0.011101, "CountryID": 99, "LayerOrder": "3" }, "geometry": { "type": "Point", "coordinates": [ 69.3813, 37.4707 ] } },
{ "type": "Feature", "properties": { "Id": 0, "Name": "FUKCHE", "Abbr_3": "FCH", "Country": "India", "Remarks": "Air Base", "lat": 32.9478, "long": 79.2115, "elev": -766.799395, "CountryID": 99, "LayerOrder": "3" }, "geometry": { "type": "Point", "coordinates": [ 79.2115, 32.9478 ] } },
{ "type": "Feature", "properties": { "Id": 0, "Name": "FURSATGANJ", "Abbr_3": "FSG", "Country": "India", "Remarks": "Air Base", "lat": 26.2486, "long": 81.3801, "elev": -600.249301, "CountryID": 99, "LayerOrder": "3" }, "geometry": { "type": "Point", "coordinates": [ 81.3801, 26.2486 ] } },
{ "type": "Feature", "properties": { "Id": 0, "Name": "GAGGAL", "Abbr_3": "GGL", "Country": "India", "Remarks": "Air Base", "lat": 32.166, "long": 76.2621, "elev": 533.594386, "CountryID": 99, "LayerOrder": "3" }, "geometry": { "type": "Point", "coordinates": [ 76.2621, 32.166 ] } },
{ "type": "Feature", "properties": { "Id": 0, "Name": "GAWALIOR/MAHRAJPURA", "Abbr_3": "GLR", "Country": "India", "Remarks": "Air Base", "lat": 26.2935, "long": 78.2275, "elev": -764.967768, "CountryID": 99, "LayerOrder": "3" }, "geometry": { "type": "Point", "coordinates": [ 78.2275, 26.2935 ] } },
{ "type": "Feature", "properties": { "Id": 0, "Name": "GORAKHPUR", "Abbr_3": "GKR", "Country": "India", "Remarks": "Air Base", "lat": 26.7409, "long": 83.4497, "elev": -372.524413, "CountryID": 99, "LayerOrder": "3" }, "geometry": { "type": "Point", "coordinates": [ 83.4497, 26.7409 ] } },
{ "type": "Feature", "properties": { "Id": 0, "Name": "GUNA", "Abbr_3": "GUN", "Country": "India", "Remarks": "Air Base", "lat": 24.6548, "long": 77.3474, "elev": -0.011146, "CountryID": 99, "LayerOrder": "3" }, "geometry": { "type": "Point", "coordinates": [ 77.3474, 24.6548 ] } },
{ "type": "Feature", "properties": { "Id": 0, "Name": "HALWARA", "Abbr_3": "HLW", "Country": "India", "Remarks": "Air Base", "lat": 30.7494, "long": 75.6328, "elev": -0.010759, "CountryID": 99, "LayerOrder": "3" }, "geometry": { "type": "Point", "coordinates": [ 75.6328, 30.7494 ] } },
{ "type": "Feature", "properties": { "Id": 0, "Name": "HINDO", "Abbr_3": "HND", "Country": "India", "Remarks": "Air Base", "lat": 28.7056, "long": 77.3608, "elev": -0.008287, "CountryID": 99, "LayerOrder": "3" }, "geometry": { "type": "Point", "coordinates": [ 77.3608, 28.7056 ] } },
{ "type": "Feature", "properties": { "Id": 0, "Name": "HISSAR", "Abbr_3": "HSR", "Country": "India", "Remarks": "Air Base", "lat": 29.1778, "long": 75.7583, "elev": -0.011839, "CountryID": 99, "LayerOrder": "3" }, "geometry": { "type": "Point", "coordinates": [ 75.7583, 29.1778 ] } },
{ "type": "Feature", "properties": { "Id": 0, "Name": "INDRA-GANDHI-INTL", "Abbr_3": "IGI", "Country": "India", "Remarks": "Air Base", "lat": 28.5736, "long": 77.1008, "elev": -0.010481, "CountryID": 99, "LayerOrder": "3" }, "geometry": { "type": "Point", "coordinates": [ 77.1008, 28.5736 ] } },
{ "type": "Feature", "properties": { "Id": 0, "Name": "JABALPUR", "Abbr_3": "JBP", "Country": "India", "Remarks": "Air Base", "lat": 23.1777, "long": 80.0519, "elev": -588.3849, "CountryID": 99, "LayerOrder": "3" }, "geometry": { "type": "Point", "coordinates": [ 80.0519, 23.1777 ] } },
{ "type": "Feature", "properties": { "Id": 0, "Name": "JAIPUR", "Abbr_3": "JPR", "Country": "India", "Remarks": "Air Base", "lat": 26.8217, "long": 75.8061, "elev": -0.007296, "CountryID": 99, "LayerOrder": "3" }, "geometry": { "type": "Point", "coordinates": [ 75.8061, 26.8217 ] } },
{ "type": "Feature", "properties": { "Id": 0, "Name": "JAISALMER", "Abbr_3": "JLM", "Country": "India", "Remarks": "Air Base", "lat": 26.8889, "long": 70.8681, "elev": 11.996418, "CountryID": 99, "LayerOrder": "2,3" }, "geometry": { "type": "Point", "coordinates": [ 70.8681, 26.8889 ] } },
{ "type": "Feature", "properties": { "Id": 0, "Name": "JALGON", "Abbr_3": "JLG", "Country": "India", "Remarks": "Air Base", "lat": 20.9625, "long": 75.6265, "elev": -2551.729151, "CountryID": 99, "LayerOrder": "3" }, "geometry": { "type": "Point", "coordinates": [ 75.6265, 20.9625 ] } },
{ "type": "Feature", "properties": { "Id": 0, "Name": "JAMMU", "Abbr_3": "JMU", "Country": "India", "Remarks": "Air Base", "lat": 32.6917, "long": 74.8375, "elev": 233.000365, "CountryID": 99, "LayerOrder": "2,3" }, "geometry": { "type": "Point", "coordinates": [ 74.8375, 32.6917 ] } },
{ "type": "Feature", "properties": { "Id": 0, "Name": "JAMNAGAR", "Abbr_3": "JMN", "Country": "India", "Remarks": "Air Base", "lat": 22.4633, "long": 70.0119, "elev": -731.816287, "CountryID": 99, "LayerOrder": "2,3" }, "geometry": { "type": "Point", "coordinates": [ 70.0119, 22.4633 ] } },
{ "type": "Feature", "properties": { "Id": 0, "Name": "JHANSI", "Abbr_3": "JNS", "Country": "India", "Remarks": "Air Base", "lat": 25.4899, "long": 78.5595, "elev": -393.387308, "CountryID": 99, "LayerOrder": "3" }, "geometry": { "type": "Point", "coordinates": [ 78.5595, 25.4899 ] } },
{ "type": "Feature", "properties": { "Id": 0, "Name": "JHUNJHUNUN", "Abbr_3": "JJN", "Country": "India", "Remarks": "Air Base", "lat": 28.1071, "long": 75.376, "elev": -0.009489, "CountryID": 99, "LayerOrder": "3" }, "geometry": { "type": "Point", "coordinates": [ 75.376, 28.1071 ] } },
{ "type": "Feature", "properties": { "Id": 0, "Name": "JODHPUR", "Abbr_3": "JDP", "Country": "India", "Remarks": "Air Base", "lat": 26.2606, "long": 73.0478, "elev": -0.008223, "CountryID": 99, "LayerOrder": "3" }, "geometry": { "type": "Point", "coordinates": [ 73.0478, 26.2606 ] } },
{ "type": "Feature", "properties": { "Id": 0, "Name": "KALYANPUR/IIT KANPUR", "Abbr_3": "KLP", "Country": "India", "Remarks": "Air Base", "lat": 26.5202, "long": 80.2329, "elev": -311.939184, "CountryID": 99, "LayerOrder": "3" }, "geometry": { "type": "Point", "coordinates": [ 80.2329, 26.5202 ] } },
{ "type": "Feature", "properties": { "Id": 0, "Name": "KANDLA", "Abbr_3": "KDL", "Country": "India", "Remarks": "Air Base", "lat": 23.1119, "long": 70.1011, "elev": -0.013151, "CountryID": 99, "LayerOrder": "2,3" }, "geometry": { "type": "Point", "coordinates": [ 70.1011, 23.1119 ] } },
{ "type": "Feature", "properties": { "Id": 0, "Name": "KANPUR", "Abbr_3": "KPR", "Country": "India", "Remarks": "Air Base", "lat": 26.4044, "long": 80.4142, "elev": -563.950093, "CountryID": 99, "LayerOrder": "3" }, "geometry": { "type": "Point", "coordinates": [ 80.4142, 26.4044 ] } },
{ "type": "Feature", "properties": { "Id": 0, "Name": "KARGIL", "Abbr_3": "KGL", "Country": "India", "Remarks": "Air Base", "lat": 34.5243, "long": 76.1557, "elev": 2935.414494, "CountryID": 99, "LayerOrder": "2,3" }, "geometry": { "type": "Point", "coordinates": [ 76.1557, 34.5243 ] } },
{ "type": "Feature", "properties": { "Id": 0, "Name": "KARNAL", "Abbr_3": "KRN", "Country": "India", "Remarks": "Air Base", "lat": 29.7139, "long": 77.0417, "elev": -0.005769, "CountryID": 99, "LayerOrder": "3" }, "geometry": { "type": "Point", "coordinates": [ 77.0417, 29.7139 ] } },
{ "type": "Feature", "properties": { "Id": 0, "Name": "KASIA/KUSHINAGAR", "Abbr_3": "KSG", "Country": "India", "Remarks": "Air Base", "lat": 26.7722, "long": 83.902, "elev": -409.80436, "CountryID": 99, "LayerOrder": "3" }, "geometry": { "type": "Point", "coordinates": [ 83.902, 26.7722 ] } },
{ "type": "Feature", "properties": { "Id": 0, "Name": "KESHOD", "Abbr_3": "KSD", "Country": "India", "Remarks": "Air Base", "lat": 21.3169, "long": 70.2702, "elev": -1960.458922, "CountryID": 99, "LayerOrder": "3" }, "geometry": { "type": "Point", "coordinates": [ 70.2702, 21.3169 ] } },
{ "type": "Feature", "properties": { "Id": 0, "Name": "KHAJURAO", "Abbr_3": "KJR", "Country": "India", "Remarks": "Air Base", "lat": 24.8197, "long": 79.9194, "elev": -656.977619, "CountryID": 99, "LayerOrder": "3" }, "geometry": { "type": "Point", "coordinates": [ 79.9194, 24.8197 ] } },
{ "type": "Feature", "properties": { "Id": 0, "Name": "KOTA", "Abbr_3": "KTA", "Country": "India", "Remarks": "Air Base", "lat": 25.1617, "long": 75.8436, "elev": -0.009271, "CountryID": 99, "LayerOrder": "3" }, "geometry": { "type": "Point", "coordinates": [ 75.8436, 25.1617 ] } },
{ "type": "Feature", "properties": { "Id": 0, "Name": "LEH", "Abbr_3": "LEH", "Country": "India", "Remarks": "Air Base", "lat": 34.1358, "long": 77.5492, "elev": 3270.397637, "CountryID": 99, "LayerOrder": "2,3" }, "geometry": { "type": "Point", "coordinates": [ 77.5492, 34.1358 ] } },
{ "type": "Feature", "properties": { "Id": 0, "Name": "LUCKNOW", "Abbr_3": "LCK", "Country": "India", "Remarks": "Air Base", "lat": 26.7604, "long": 80.8883, "elev": -435.065173, "CountryID": 99, "LayerOrder": "3" }, "geometry": { "type": "Point", "coordinates": [ 80.8883, 26.7604 ] } },
{ "type": "Feature", "properties": { "Id": 0, "Name": "LUDHIANA", "Abbr_3": "LDH", "Country": "India", "Remarks": "Air Base", "lat": 30.8531, "long": 75.9542, "elev": -0.007592, "CountryID": 99, "LayerOrder": "3" }, "geometry": { "type": "Point", "coordinates": [ 75.9542, 30.8531 ] } },
{ "type": "Feature", "properties": { "Id": 0, "Name": "MUIRPUR", "Abbr_3": "MUP", "Country": "India", "Remarks": "Air Base", "lat": 24.1252, "long": 83.0399, "elev": -328.064769, "CountryID": 99, "LayerOrder": "3" }, "geometry": { "type": "Point", "coordinates": [ 83.0399, 24.1252 ] } },
{ "type": "Feature", "properties": { "Id": 0, "Name": "NAGAUR", "Abbr_3": "NGR", "Country": "India", "Remarks": "Air Base", "lat": 27.2068, "long": 73.7098, "elev": -0.00955, "CountryID": 99, "LayerOrder": "2,3" }, "geometry": { "type": "Point", "coordinates": [ 73.7098, 27.2068 ] } },
{ "type": "Feature", "properties": { "Id": 0, "Name": "NAGPUR", "Abbr_3": "NGP", "Country": "India", "Remarks": "Air Base", "lat": 21.0976, "long": 79.0429, "elev": -2535.60483, "CountryID": 99, "LayerOrder": "3" }, "geometry": { "type": "Point", "coordinates": [ 79.0429, 21.0976 ] } },
{ "type": "Feature", "properties": { "Id": 0, "Name": "NAL", "Abbr_3": "NAL", "Country": "India", "Remarks": "Air Base", "lat": 28.0708, "long": 73.2103, "elev": 206.898234, "CountryID": 99, "LayerOrder": "2,3" }, "geometry": { "type": "Point", "coordinates": [ 73.2103, 28.0708 ] } },
{ "type": "Feature", "properties": { "Id": 0, "Name": "NAWAPARA/NUAPADA", "Abbr_3": "NWP", "Country": "India", "Remarks": "Air Base", "lat": 20.87, "long": 82.5196, "elev": -3366.461693, "CountryID": 99, "LayerOrder": "3" }, "geometry": { "type": "Point", "coordinates": [ 82.5196, 20.87 ] } },
{ "type": "Feature", "properties": { "Id": 0, "Name": "NIMACH", "Abbr_3": "NMH", "Country": "India", "Remarks": "Air Base", "lat": 24.431, "long": 74.8681, "elev": -0.012574, "CountryID": 99, "LayerOrder": "3" }, "geometry": { "type": "Point", "coordinates": [ 74.8681, 24.431 ] } },
{ "type": "Feature", "properties": { "Id": 0, "Name": "NUAGAON", "Abbr_3": "NGN", "Country": "India", "Remarks": "Air Base", "lat": 20.5117, "long": 83.4481, "elev": -3066.609178, "CountryID": 99, "LayerOrder": "3" }, "geometry": { "type": "Point", "coordinates": [ 83.4481, 20.5117 ] } },
{ "type": "Feature", "properties": { "Id": 0, "Name": "OJHAR", "Abbr_3": "OJR", "Country": "India", "Remarks": "Air Base", "lat": 20.1197, "long": 73.9134, "elev": -2352.11678, "CountryID": 99, "LayerOrder": "3" }, "geometry": { "type": "Point", "coordinates": [ 73.9134, 20.1197 ] } },
{ "type": "Feature", "properties": { "Id": 0, "Name": "ONDWA", "Abbr_3": "ONW", "Country": "India", "Remarks": "Air Base", "lat": 25.1428, "long": 74.6139, "elev": -0.003839, "CountryID": 99, "LayerOrder": "3" }, "geometry": { "type": "Point", "coordinates": [ 74.6139, 25.1428 ] } },
{ "type": "Feature", "properties": { "Id": 0, "Name": "PALANPUR/DEESA", "Abbr_3": "PLP", "Country": "India", "Remarks": "Air Base", "lat": 24.2682, "long": 72.2042, "elev": 110.126997, "CountryID": 99, "LayerOrder": "2,3" }, "geometry": { "type": "Point", "coordinates": [ 72.2042, 24.2682 ] } },
{ "type": "Feature", "properties": { "Id": 0, "Name": "PANTNAGAR", "Abbr_3": "PNG", "Country": "India", "Remarks": "Air Base", "lat": 29.0335, "long": 79.4737, "elev": -804.962867, "CountryID": 99, "LayerOrder": "3" }, "geometry": { "type": "Point", "coordinates": [ 79.4737, 29.0335 ] } },
{ "type": "Feature", "properties": { "Id": 0, "Name": "PATHANKOT", "Abbr_3": "PKT", "Country": "India", "Remarks": "Air Base", "lat": 32.2306, "long": 75.6333, "elev": 296.463384, "CountryID": 99, "LayerOrder": "2,3" }, "geometry": { "type": "Point", "coordinates": [ 75.6333, 32.2306 ] } },
{ "type": "Feature", "properties": { "Id": 0, "Name": "PATIALA", "Abbr_3": "PTL", "Country": "India", "Remarks": "Air Base", "lat": 30.3158, "long": 76.3625, "elev": -0.009336, "CountryID": 99, "LayerOrder": "3" }, "geometry": { "type": "Point", "coordinates": [ 76.3625, 30.3158 ] } },
{ "type": "Feature", "properties": { "Id": 0, "Name": "PILANI", "Abbr_3": "PLN", "Country": "India", "Remarks": "Air Base", "lat": 28.3479, "long": 75.5947, "elev": -0.012595, "CountryID": 99, "LayerOrder": "3" }, "geometry": { "type": "Point", "coordinates": [ 75.5947, 28.3479 ] } },
{ "type": "Feature", "properties": { "Id": 0, "Name": "PITHORANGAR/NAINI SAINI AIRSTRIP", "Abbr_3": "PGH", "Country": "India", "Remarks": "Air Base", "lat": 29.5936, "long": 80.2391, "elev": -161.144343, "CountryID": 99, "LayerOrder": "3" }, "geometry": { "type": "Point", "coordinates": [ 80.2391, 29.5936 ] } },
{ "type": "Feature", "properties": { "Id": 0, "Name": "PORBANDAR", "Abbr_3": "PBD", "Country": "India", "Remarks": "Air Base", "lat": 21.6495, "long": 69.656, "elev": -2804.370052, "CountryID": 99, "LayerOrder": "3" }, "geometry": { "type": "Point", "coordinates": [ 69.656, 21.6495 ] } },
{ "type": "Feature", "properties": { "Id": 0, "Name": "RAEDHANPUR", "Abbr_3": "RPR", "Country": "India", "Remarks": "Air Base", "lat": 23.2214, "long": 68.8925, "elev": 40.372292, "CountryID": 99, "LayerOrder": "2,3" }, "geometry": { "type": "Point", "coordinates": [ 68.8925, 23.2214 ] } },
{ "type": "Feature", "properties": { "Id": 0, "Name": "RAIPUR", "Abbr_3": "RIP", "Country": "India", "Remarks": "Air Base", "lat": 21.1804, "long": 81.7388, "elev": -2297.028752, "CountryID": 99, "LayerOrder": "3" }, "geometry": { "type": "Point", "coordinates": [ 81.7388, 21.1804 ] } },
{ "type": "Feature", "properties": { "Id": 0, "Name": "RAJKOT", "Abbr_3": "RJK", "Country": "India", "Remarks": "Air Base", "lat": 22.3058, "long": 70.7808, "elev": -1415.189607, "CountryID": 99, "LayerOrder": "3" }, "geometry": { "type": "Point", "coordinates": [ 70.7808, 22.3058 ] } },
{ "type": "Feature", "properties": { "Id": 0, "Name": "RAJORI", "Abbr_3": "RJR", "Country": "India", "Remarks": "Air Base", "lat": 33.3792, "long": 74.3167, "elev": 940.54457, "CountryID": 99, "LayerOrder": "2,3" }, "geometry": { "type": "Point", "coordinates": [ 74.3167, 33.3792 ] } },
{ "type": "Feature", "properties": { "Id": 0, "Name": "SAFDARJUNG", "Abbr_3": "SFJ", "Country": "India", "Remarks": "Air Base", "lat": 28.5833, "long": 77.2058, "elev": -0.009428, "CountryID": 99, "LayerOrder": "3" }, "geometry": { "type": "Point", "coordinates": [ 77.2058, 28.5833 ] } },
{ "type": "Feature", "properties": { "Id": 0, "Name": "SARSAWA", "Abbr_3": "SSW", "Country": "India", "Remarks": "Air Base", "lat": 29.9939, "long": 77.4292, "elev": -0.010486, "CountryID": 99, "LayerOrder": "3" }, "geometry": { "type": "Point", "coordinates": [ 77.4292, 29.9939 ] } },
{ "type": "Feature", "properties": { "Id": 0, "Name": "SATNA", "Abbr_3": "STA", "Country": "India", "Remarks": "Air Base", "lat": 24.5626, "long": 80.8525, "elev": -873.100197, "CountryID": 99, "LayerOrder": "3" }, "geometry": { "type": "Point", "coordinates": [ 80.8525, 24.5626 ] } },
{ "type": "Feature", "properties": { "Id": 0, "Name": "SIDHI", "Abbr_3": "SDH", "Country": "India", "Remarks": "Air Base", "lat": 24.4021, "long": 81.8143, "elev": -670.466551, "CountryID": 99, "LayerOrder": "3" }, "geometry": { "type": "Point", "coordinates": [ 81.8143, 24.4021 ] } },
{ "type": "Feature", "properties": { "Id": 0, "Name": "SIMLA", "Abbr_3": "SML", "Country": "India", "Remarks": "Air Base", "lat": 31.0778, "long": 77.0728, "elev": -0.011973, "CountryID": 99, "LayerOrder": "3" }, "geometry": { "type": "Point", "coordinates": [ 77.0728, 31.0778 ] } },
{ "type": "Feature", "properties": { "Id": 0, "Name": "SIROHI", "Abbr_3": "SRH", "Country": "India", "Remarks": "Air Base", "lat": 24.8917, "long": 72.8469, "elev": -0.012624, "CountryID": 99, "LayerOrder": "3" }, "geometry": { "type": "Point", "coordinates": [ 72.8469, 24.8917 ] } },
{ "type": "Feature", "properties": { "Id": 0, "Name": "SIRSA", "Abbr_3": "SRS", "Country": "India", "Remarks": "Air Base", "lat": 29.5569, "long": 75.0083, "elev": -0.009375, "CountryID": 99, "LayerOrder": "3" }, "geometry": { "type": "Point", "coordinates": [ 75.0083, 29.5569 ] } },
{ "type": "Feature", "properties": { "Id": 0, "Name": "SRINAGAR", "Abbr_3": "SNG", "Country": "India", "Remarks": "Air Base", "lat": 33.9881, "long": 74.7753, "elev": 1648.029933, "CountryID": 99, "LayerOrder": "2,3" }, "geometry": { "type": "Point", "coordinates": [ 74.7753, 33.9881 ] } },
{ "type": "Feature", "properties": { "Id": 0, "Name": "SURAT", "Abbr_3": "SRT", "Country": "India", "Remarks": "Air Base", "lat": 21.1174, "long": 72.7449, "elev": -2691.224884, "CountryID": 99, "LayerOrder": "3" }, "geometry": { "type": "Point", "coordinates": [ 72.7449, 21.1174 ] } },
{ "type": "Feature", "properties": { "Id": 0, "Name": "SURATGARH", "Abbr_3": "STG", "Country": "India", "Remarks": "Air Base", "lat": 29.3889, "long": 73.9028, "elev": 170.202885, "CountryID": 99, "LayerOrder": "2,3" }, "geometry": { "type": "Point", "coordinates": [ 73.9028, 29.3889 ] } },
{ "type": "Feature", "properties": { "Id": 0, "Name": "THOISE", "Abbr_3": "THS", "Country": "India", "Remarks": "Air Base", "lat": 34.6514, "long": 77.3889, "elev": 3051.999746, "CountryID": 99, "LayerOrder": "2,3" }, "geometry": { "type": "Point", "coordinates": [ 77.3889, 34.6514 ] } },
{ "type": "Feature", "properties": { "Id": 0, "Name": "UDAIPUR", "Abbr_3": "UDP", "Country": "India", "Remarks": "Air Base", "lat": 24.615, "long": 73.8961, "elev": -0.006362, "CountryID": 99, "LayerOrder": "3" }, "geometry": { "type": "Point", "coordinates": [ 73.8961, 24.615 ] } },
{ "type": "Feature", "properties": { "Id": 0, "Name": "UDHAMPUR", "Abbr_3": "UDM", "Country": "India", "Remarks": "Air Base", "lat": 32.9008, "long": 75.1569, "elev": 613.177082, "CountryID": 99, "LayerOrder": "2,3" }, "geometry": { "type": "Point", "coordinates": [ 75.1569, 32.9008 ] } },
{ "type": "Feature", "properties": { "Id": 0, "Name": "UTKELA", "Abbr_3": "UKL", "Country": "India", "Remarks": "Air Base", "lat": 20.0978, "long": 83.1835, "elev": -2595.812054, "CountryID": 99, "LayerOrder": "3" }, "geometry": { "type": "Point", "coordinates": [ 83.1835, 20.0978 ] } },
{ "type": "Feature", "properties": { "Id": 0, "Name": "UTTERLAI", "Abbr_3": "UTL", "Country": "India", "Remarks": "Air Base", "lat": 25.8208, "long": 71.4861, "elev": -0.012687, "CountryID": 99, "LayerOrder": "2,3" }, "geometry": { "type": "Point", "coordinates": [ 71.4861, 25.8208 ] } },
{ "type": "Feature", "properties": { "Id": 0, "Name": "VADODARA", "Abbr_3": "VDR", "Country": "India", "Remarks": "Air Base", "lat": 22.3367, "long": 73.2264, "elev": -651.548655, "CountryID": 99, "LayerOrder": "3" }, "geometry": { "type": "Point", "coordinates": [ 73.2264, 22.3367 ] } }
]
}
