{
"type": "FeatureCollection",
"name": "Point_Data_8oct",
"crs": { "type": "name", "properties": { "name": "urn:ogc:def:crs:OGC:1.3:CRS84" } },
"features": [
{ "type": "Feature", "properties": { "Id": 11, "Name": "Farah", "Abbr_3": "FAR", "Country": "Afghanistan", "Category": "Major City", "lat": 32.40408959, "long": 62.1150294, "elev": -0.004872, "CountryID": 1, "LayerOrder": "2,3", "Colour": "Green", "TextColour": "Green" }, "geometry": { "type": "Point", "coordinates": [ 62.1150294, 32.40408959 ] } },
{ "type": "Feature", "properties": { "Id": 13, "Name": "Wardak", "Abbr_3": "WAR", "Country": "Afghanistan", "Category": "City", "lat": 34.33070411, "long": 68.55928563000001, "elev": -0.008691, "CountryID": 1, "LayerOrder": "3", "Colour": "Green", "TextColour": "Green" }, "geometry": { "type": "Point", "coordinates": [ 68.55928563, 34.33070411 ] } },
{ "type": "Feature", "properties": { "Id": 14, "Name": "Taluqan", "Abbr_3": "TAL", "Country": "Afghanistan", "Category": "City", "lat": 36.71851968, "long": 69.56823324, "elev": -0.01174, "CountryID": 1, "LayerOrder": "3", "Colour": "Green", "TextColour": "Green" }, "geometry": { "type": "Point", "coordinates": [ 69.56823324, 36.71851968 ] } },
{ "type": "Feature", "properties": { "Id": 15, "Name": "Kunduz", "Abbr_3": "KUN", "Country": "Afghanistan", "Category": "City", "lat": 36.76324815, "long": 68.84341782, "elev": -0.011883, "CountryID": 1, "LayerOrder": "3", "Colour": "Green", "TextColour": "Green" }, "geometry": { "type": "Point", "coordinates": [ 68.84341782, 36.76324815 ] } },
{ "type": "Feature", "properties": { "Id": 16, "Name": "Mazar-i-Sharif", "Abbr_3": "MIS", "Country": "Afghanistan", "Category": "City", "lat": 36.7086059, "long": 67.10108977, "elev": -0.011471, "CountryID": 1, "LayerOrder": "3", "Colour": "Green", "TextColour": "Green" }, "geometry": { "type": "Point", "coordinates": [ 67.10108977, 36.7086059 ] } },
{ "type": "Feature", "properties": { "Id": 17, "Name": "Baghlan", "Abbr_3": "BAG", "Country": "Afghanistan", "Category": "Major City", "lat": 36.22184491, "long": 68.75417799, "elev": -0.004543, "CountryID": 1, "LayerOrder": "2,3", "Colour": "Green", "TextColour": "Green" }, "geometry": { "type": "Point", "coordinates": [ 68.75417799, 36.22184491 ] } },
{ "type": "Feature", "properties": { "Id": 18, "Name": "Aybak", "Abbr_3": "AYB", "Country": "Afghanistan", "Category": "City", "lat": 36.25222858, "long": 68.0386676, "elev": -0.008399, "CountryID": 1, "LayerOrder": "3", "Colour": "Green", "TextColour": "Green" }, "geometry": { "type": "Point", "coordinates": [ 68.0386676, 36.25222858 ] } },
{ "type": "Feature", "properties": { "Id": 21, "Name": "Andkhoy", "Abbr_3": "ANK", "Country": "Afghanistan", "Category": "City", "lat": 36.94051013, "long": 65.11089333, "elev": -0.005733, "CountryID": 1, "LayerOrder": "3", "Colour": "Green", "TextColour": "Green" }, "geometry": { "type": "Point", "coordinates": [ 65.11089333, 36.94051013 ] } },
{ "type": "Feature", "properties": { "Id": 25, "Name": "Zebak", "Abbr_3": "ZEB", "Country": "Afghanistan", "Category": "City", "lat": 36.56922653, "long": 71.3755274, "elev": 2650.140378, "CountryID": 1, "LayerOrder": "3", "Colour": "Green", "TextColour": "Green" }, "geometry": { "type": "Point", "coordinates": [ 71.3755274, 36.56922653 ] } },
{ "type": "Feature", "properties": { "Id": 39, "Name": "Fayazbad", "Abbr_3": "FAB", "Country": "Afghanistan", "Category": "Major City", "lat": 37.10226317, "long": 70.54407821, "elev": -0.008113, "CountryID": 1, "LayerOrder": "2,3", "Colour": "Green", "TextColour": "Green" }, "geometry": { "type": "Point", "coordinates": [ 70.54407821, 37.10226317 ] } },
{ "type": "Feature", "properties": { "Id": 41, "Name": "Maymana", "Abbr_3": "MAA", "Country": "Afghanistan", "Category": "City", "lat": 35.91044256, "long": 64.78927167000001, "elev": -0.010894, "CountryID": 1, "LayerOrder": "3", "Colour": "Green", "TextColour": "Green" }, "geometry": { "type": "Point", "coordinates": [ 64.78927167, 35.91044256 ] } },
{ "type": "Feature", "properties": { "Id": 84, "Name": "Chaghcharan", "Abbr_3": "CHA", "Country": "Afghanistan", "Category": "City", "lat": 34.4749712, "long": 65.2244419, "elev": -0.004427, "CountryID": 1, "LayerOrder": "3", "Colour": "Green", "TextColour": "Green" }, "geometry": { "type": "Point", "coordinates": [ 65.2244419, 34.4749712 ] } },
{ "type": "Feature", "properties": { "Id": 85, "Name": "Hirat", "Abbr_3": "HIC", "Country": "Afghanistan", "Category": "Major City", "lat": 34.34279611, "long": 62.18072666, "elev": -0.00678, "CountryID": 1, "LayerOrder": "2,3", "Colour": "Green", "TextColour": "Green" }, "geometry": { "type": "Point", "coordinates": [ 62.18072666, 34.34279611 ] } },
{ "type": "Feature", "properties": { "Id": 86, "Name": "Puli Khumri", "Abbr_3": "PUK", "Country": "Afghanistan", "Category": "City", "lat": 35.93071395, "long": 68.73623912, "elev": -0.001292, "CountryID": 1, "LayerOrder": "3", "Colour": "Green", "TextColour": "Green" }, "geometry": { "type": "Point", "coordinates": [ 68.73623912, 35.93071395 ] } },
{ "type": "Feature", "properties": { "Id": 89, "Name": "Zaranj", "Abbr_3": "ZAR", "Country": "Afghanistan", "Category": "City", "lat": 31.021633, "long": 61.87488614, "elev": -0.006736, "CountryID": 1, "LayerOrder": "3", "Colour": "Green", "TextColour": "Green" }, "geometry": { "type": "Point", "coordinates": [ 61.87488614, 31.021633 ] } },
{ "type": "Feature", "properties": { "Id": 91, "Name": "Puli Alam", "Abbr_3": "PUA", "Country": "Afghanistan", "Category": "City", "lat": 33.96907611, "long": 69.0249971, "elev": 1910.830551, "CountryID": 1, "LayerOrder": "3", "Colour": "Green", "TextColour": "Green" }, "geometry": { "type": "Point", "coordinates": [ 69.0249971, 33.96907611 ] } },
{ "type": "Feature", "properties": { "Id": 93, "Name": "Gardez", "Abbr_3": "GAE", "Country": "Afghanistan", "Category": "City", "lat": 33.61469493, "long": 69.13137874, "elev": 2384.288621, "CountryID": 1, "LayerOrder": "3", "Colour": "Green", "TextColour": "Green" }, "geometry": { "type": "Point", "coordinates": [ 69.13137874, 33.61469493 ] } },
{ "type": "Feature", "properties": { "Id": 94, "Name": "Tirin_kot", "Abbr_3": "TIR", "Country": "Afghanistan", "Category": "City", "lat": 32.67766903, "long": 66.06900081000001, "elev": -0.010077, "CountryID": 1, "LayerOrder": "3", "Colour": "Green", "TextColour": "Green" }, "geometry": { "type": "Point", "coordinates": [ 66.06900081, 32.67766903 ] } },
{ "type": "Feature", "properties": { "Id": 95, "Name": "Ghazni", "Abbr_3": "GHA", "Country": "Afghanistan", "Category": "Major City", "lat": 33.53866479, "long": 68.45278036000001, "elev": -0.012321, "CountryID": 1, "LayerOrder": "2,3", "Colour": "Green", "TextColour": "Green" }, "geometry": { "type": "Point", "coordinates": [ 68.45278036, 33.53866479 ] } },
{ "type": "Feature", "properties": { "Id": 100, "Name": "Kandahar", "Abbr_3": "KAN", "Country": "Afghanistan", "Category": "City", "lat": 31.61801457, "long": 65.70915808, "elev": -0.003269, "CountryID": 1, "LayerOrder": "3", "Colour": "Green", "TextColour": "Green" }, "geometry": { "type": "Point", "coordinates": [ 65.70915808, 31.61801457 ] } },
{ "type": "Feature", "properties": { "Id": 102, "Name": "Reg", "Abbr_3": "REH", "Country": "Afghanistan", "Category": "City", "lat": 30.99407912, "long": 64.11717336, "elev": -0.009246, "CountryID": 1, "LayerOrder": "3", "Colour": "Green", "TextColour": "Green" }, "geometry": { "type": "Point", "coordinates": [ 64.11717336, 30.99407912 ] } },
{ "type": "Feature", "properties": { "Id": 107, "Name": "Qalat", "Abbr_3": "QAA", "Country": "Afghanistan", "Category": "City", "lat": 32.09570084, "long": 66.90335023, "elev": 1774.727402, "CountryID": 1, "LayerOrder": "3", "Colour": "Green", "TextColour": "Green" }, "geometry": { "type": "Point", "coordinates": [ 66.90335023, 32.09570084 ] } },
{ "type": "Feature", "properties": { "Id": 143, "Name": "Mahmud-Raqi", "Abbr_3": "MAR", "Country": "Afghanistan", "Category": "City", "lat": 35.01017733, "long": 69.34585658, "elev": 1604.765633, "CountryID": 1, "LayerOrder": "3", "Colour": "Green", "TextColour": "Green" }, "geometry": { "type": "Point", "coordinates": [ 69.34585658, 35.01017733 ] } },
{ "type": "Feature", "properties": { "Id": 144, "Name": "Chaharikar", "Abbr_3": "CHR", "Country": "Afghanistan", "Category": "City", "lat": 35.02361489, "long": 69.15880075, "elev": 1585.977463, "CountryID": 1, "LayerOrder": "3", "Colour": "Green", "TextColour": "Green" }, "geometry": { "type": "Point", "coordinates": [ 69.15880075, 35.02361489 ] } },
{ "type": "Feature", "properties": { "Id": 145, "Name": "Bamyan", "Abbr_3": "BAY", "Country": "Afghanistan", "Category": "City", "lat": 34.84232742, "long": 67.81691162, "elev": -0.007889, "CountryID": 1, "LayerOrder": "3", "Colour": "Green", "TextColour": "Green" }, "geometry": { "type": "Point", "coordinates": [ 67.81691162, 34.84232742 ] } },
{ "type": "Feature", "properties": { "Id": 159, "Name": "Jalalabad", "Abbr_3": "JAL", "Country": "Afghanistan", "Category": "Major City", "lat": 34.42099124, "long": 70.46009384, "elev": 563.922029, "CountryID": 1, "LayerOrder": "2,3", "Colour": "Green", "TextColour": "Green" }, "geometry": { "type": "Point", "coordinates": [ 70.46009384, 34.42099124 ] } },
{ "type": "Feature", "properties": { "Id": 161, "Name": "Mihtarlam", "Abbr_3": "MIH", "Country": "Afghanistan", "Category": "City", "lat": 34.65855404, "long": 70.19347372, "elev": 753.61576, "CountryID": 1, "LayerOrder": "3", "Colour": "Green", "TextColour": "Green" }, "geometry": { "type": "Point", "coordinates": [ 70.19347372, 34.65855404 ] } },
{ "type": "Feature", "properties": { "Id": 162, "Name": "Ishkashim", "Abbr_3": "ISK", "Country": "Afghanistan", "Category": "City", "lat": 36.67913939, "long": 71.54003144000001, "elev": 2874.760524, "CountryID": 1, "LayerOrder": "3", "Colour": "Green", "TextColour": "Green" }, "geometry": { "type": "Point", "coordinates": [ 71.54003144, 36.67913939 ] } },
{ "type": "Feature", "properties": { "Id": 163, "Name": "Asadabad", "Abbr_3": "ASA", "Country": "Afghanistan", "Category": "City", "lat": 34.87461847, "long": 71.15115773, "elev": 811.003588, "CountryID": 1, "LayerOrder": "3", "Colour": "Green", "TextColour": "Green" }, "geometry": { "type": "Point", "coordinates": [ 71.15115773, 34.87461847 ] } },
{ "type": "Feature", "properties": { "Id": 219, "Name": "Spin Boldak", "Abbr_3": "SPB", "Country": "Afghanistan", "Category": "City", "lat": 31.00341524, "long": 66.40451814, "elev": 1221.437943, "CountryID": 1, "LayerOrder": "3", "Colour": "Green", "TextColour": "Green" }, "geometry": { "type": "Point", "coordinates": [ 66.40451814, 31.00341524 ] } },
{ "type": "Feature", "properties": { "Id": 240, "Name": "Daman", "Abbr_3": "DAM", "Country": "Afghanistan", "Category": "City", "lat": 31.56465065, "long": 66.2587781, "elev": 1202.43154, "CountryID": 1, "LayerOrder": "3", "Colour": "Green", "TextColour": "Green" }, "geometry": { "type": "Point", "coordinates": [ 66.2587781, 31.56465065 ] } },
{ "type": "Feature", "properties": { "Id": 262, "Name": "Tarnak_Wa_Jaldak", "Abbr_3": "TAJ", "Country": "Afghanistan", "Category": "City", "lat": 31.96129191, "long": 66.73091525, "elev": 1455.583633, "CountryID": 1, "LayerOrder": "3", "Colour": "Green", "TextColour": "Green" }, "geometry": { "type": "Point", "coordinates": [ 66.73091525, 31.96129191 ] } },
{ "type": "Feature", "properties": { "Id": 263, "Name": "Shinkay", "Abbr_3": "SIK", "Country": "Afghanistan", "Category": "City", "lat": 31.95091349, "long": 67.44830966000001, "elev": 2197.977552, "CountryID": 1, "LayerOrder": "3", "Colour": "Green", "TextColour": "Green" }, "geometry": { "type": "Point", "coordinates": [ 67.44830966, 31.95091349 ] } },
{ "type": "Feature", "properties": { "Id": 306, "Name": "Maruf", "Abbr_3": "MAU", "Country": "Afghanistan", "Category": "City", "lat": 31.56782174, "long": 67.05205979, "elev": 1689.211538, "CountryID": 1, "LayerOrder": "3", "Colour": "Green", "TextColour": "Green" }, "geometry": { "type": "Point", "coordinates": [ 67.05205979, 31.56782174 ] } },
{ "type": "Feature", "properties": { "Id": 0, "Name": "zahedan", "Abbr_3": "ZAH", "Country": "Iran", "Category": "City", "lat": 29.50120258, "long": 60.86962761, "elev": 1373.748728, "CountryID": 101, "LayerOrder": "3", "Colour": "Green", "TextColour": "Green" }, "geometry": { "type": "Point", "coordinates": [ 60.86962761, 29.50120258 ] } },
{ "type": "Feature", "properties": { "Id": 0, "Name": "iranshahr", "Abbr_3": "IRN", "Country": "Iran", "Category": "City", "lat": 27.22662483, "long": 60.67236086, "elev": -0.00867, "CountryID": 101, "LayerOrder": "3", "Colour": "Green", "TextColour": "Green" }, "geometry": { "type": "Point", "coordinates": [ 60.67236086, 27.22662483 ] } },
{ "type": "Feature", "properties": { "Id": 0, "Name": "bampur", "Abbr_3": "BAM", "Country": "Iran", "Category": "City", "lat": 27.21182159, "long": 60.44143036, "elev": -0.005907, "CountryID": 101, "LayerOrder": "3", "Colour": "Green", "TextColour": "Green" }, "geometry": { "type": "Point", "coordinates": [ 60.44143036, 27.21182159 ] } },
{ "type": "Feature", "properties": { "Id": 0, "Name": "zaboli", "Abbr_3": "ZAB", "Country": "Iran", "Category": "City", "lat": 27.13484476, "long": 61.67305968, "elev": 1314.854398, "CountryID": 101, "LayerOrder": "3", "Colour": "Green", "TextColour": "Green" }, "geometry": { "type": "Point", "coordinates": [ 61.67305968, 27.13484476 ] } },
{ "type": "Feature", "properties": { "Id": 0, "Name": "trafshan", "Abbr_3": "TRA", "Country": "Iran", "Category": "Major City", "lat": 26.70851153, "long": 61.92767535, "elev": 948.606937, "CountryID": 101, "LayerOrder": "2,3", "Colour": "Green", "TextColour": "Green" }, "geometry": { "type": "Point", "coordinates": [ 61.92767535, 26.70851153 ] } },
{ "type": "Feature", "properties": { "Id": 0, "Name": "nikshahr", "Abbr_3": "NIK", "Country": "Iran", "Category": "City", "lat": 26.23480795, "long": 60.20161793, "elev": -0.008101, "CountryID": 101, "LayerOrder": "3", "Colour": "Green", "TextColour": "Green" }, "geometry": { "type": "Point", "coordinates": [ 60.20161793, 26.23480795 ] } },
{ "type": "Feature", "properties": { "Id": 0, "Name": "espakeh", "Abbr_3": "ESP", "Country": "Iran", "Category": "City", "lat": 26.84766196, "long": 60.16312951, "elev": -0.012665, "CountryID": 101, "LayerOrder": "3", "Colour": "Green", "TextColour": "Green" }, "geometry": { "type": "Point", "coordinates": [ 60.16312951, 26.84766196 ] } },
{ "type": "Feature", "properties": { "Id": 0, "Name": "govater", "Abbr_3": "GOV", "Country": "Iran", "Category": "City", "lat": 25.17489619, "long": 61.47765695, "elev": 4.030421, "CountryID": 101, "LayerOrder": "3", "Colour": "Green", "TextColour": "Green" }, "geometry": { "type": "Point", "coordinates": [ 61.47765695, 25.17489619 ] } },
{ "type": "Feature", "properties": { "Id": 0, "Name": "gombaki", "Abbr_3": "GOM", "Country": "Iran", "Category": "City", "lat": 25.61603265, "long": 59.42592831, "elev": 250.0, "CountryID": 101, "LayerOrder": "3", "Colour": "Green", "TextColour": "Green" }, "geometry": { "type": "Point", "coordinates": [ 59.42592831, 25.61603265 ] } },
{ "type": "Feature", "properties": { "Id": 0, "Name": "mtrjaveh", "Abbr_3": "MTR", "Country": "Iran", "Category": "City", "lat": 29.02965909, "long": 61.45397177, "elev": 827.175022, "CountryID": 101, "LayerOrder": "3", "Colour": "Green", "TextColour": "Green" }, "geometry": { "type": "Point", "coordinates": [ 61.45397177, 29.02965909 ] } },
{ "type": "Feature", "properties": { "Id": 0, "Name": "nosratabad", "Abbr_3": "NOS", "Country": "Iran", "Category": "Major City", "lat": 29.86456165, "long": 59.99141196, "elev": -0.005786, "CountryID": 101, "LayerOrder": "2,3", "Colour": "Green", "TextColour": "Green" }, "geometry": { "type": "Point", "coordinates": [ 59.99141196, 29.86456165 ] } },
{ "type": "Feature", "properties": { "Id": 1, "Name": "Sikar", "Abbr_3": "SIK", "Country": "India", "Category": "City", "lat": 27.62673292, "long": 75.14241313, "elev": -0.010463, "CountryID": 99, "LayerOrder": "3", "Colour": "Red", "TextColour": "Red" }, "geometry": { "type": "Point", "coordinates": [ 75.14241313, 27.62673292 ] } },
{ "type": "Feature", "properties": { "Id": 2, "Name": "Jodhpur", "Abbr_3": "JDP", "Country": "India", "Category": "City", "lat": 26.30104692, "long": 73.02655841000001, "elev": -0.002863, "CountryID": 99, "LayerOrder": "3", "Colour": "Red", "TextColour": "Red" }, "geometry": { "type": "Point", "coordinates": [ 73.02655841, 26.30104692 ] } },
{ "type": "Feature", "properties": { "Id": 4, "Name": "Churu", "Abbr_3": "CCR", "Country": "India", "Category": "City", "lat": 28.31604515, "long": 74.97256578, "elev": -0.010122, "CountryID": 99, "LayerOrder": "3", "Colour": "Red", "TextColour": "Red" }, "geometry": { "type": "Point", "coordinates": [ 74.97256578, 28.31604515 ] } },
{ "type": "Feature", "properties": { "Id": 7, "Name": "Damoh", "Abbr_3": "DAM", "Country": "India", "Category": "City", "lat": 23.83577013, "long": 79.45647811000001, "elev": -494.651274, "CountryID": 99, "LayerOrder": "3", "Colour": "Red", "TextColour": "Red" }, "geometry": { "type": "Point", "coordinates": [ 79.45647811, 23.83577013 ] } },
{ "type": "Feature", "properties": { "Id": 9, "Name": "Varanasi", "Abbr_3": "VAR", "Country": "India", "Category": "City", "lat": 25.33231457, "long": 83.00300579, "elev": 250.0, "CountryID": 99, "LayerOrder": "3", "Colour": "Red", "TextColour": "Red" }, "geometry": { "type": "Point", "coordinates": [ 83.00300579, 25.33231457 ] } },
{ "type": "Feature", "properties": { "Id": 10, "Name": "Prayagraj", "Abbr_3": "PRA", "Country": "India", "Category": "City", "lat": 25.44161556, "long": 81.82937194, "elev": 250.0, "CountryID": 99, "LayerOrder": "3", "Colour": "Red", "TextColour": "Red" }, "geometry": { "type": "Point", "coordinates": [ 81.82937194, 25.44161556 ] } },
{ "type": "Feature", "properties": { "Id": 26, "Name": "Uttarkashi", "Abbr_3": "UTT", "Country": "India", "Category": "City", "lat": 30.74122377, "long": 78.45112428, "elev": -468.728549, "CountryID": 99, "LayerOrder": "3", "Colour": "Red", "TextColour": "Red" }, "geometry": { "type": "Point", "coordinates": [ 78.45112428, 30.74122377 ] } },
{ "type": "Feature", "properties": { "Id": 29, "Name": "Baludeeh", "Abbr_3": "BAL", "Country": "India", "Category": "City", "lat": 27.9649033, "long": 80.7836994, "elev": 250.0, "CountryID": 99, "LayerOrder": "3", "Colour": "Red", "TextColour": "Red" }, "geometry": { "type": "Point", "coordinates": [ 80.7836994, 27.9649033 ] } },
{ "type": "Feature", "properties": { "Id": 30, "Name": "Sagar", "Abbr_3": "SAG", "Country": "India", "Category": "City", "lat": 23.8336001, "long": 78.7281055, "elev": -118.415899, "CountryID": 99, "LayerOrder": "3", "Colour": "Red", "TextColour": "Red" }, "geometry": { "type": "Point", "coordinates": [ 78.7281055, 23.8336001 ] } },
{ "type": "Feature", "properties": { "Id": 31, "Name": "Narmadapuram", "Abbr_3": "NAR", "Country": "India", "Category": "City", "lat": 22.75879929, "long": 77.71981756, "elev": -212.709522, "CountryID": 99, "LayerOrder": "3", "Colour": "Red", "TextColour": "Red" }, "geometry": { "type": "Point", "coordinates": [ 77.71981756, 22.75879929 ] } },
{ "type": "Feature", "properties": { "Id": 32, "Name": "Rewa", "Abbr_3": "REW", "Country": "India", "Category": "City", "lat": 24.54299155, "long": 81.30972453, "elev": 250.0, "CountryID": 99, "LayerOrder": "3", "Colour": "Red", "TextColour": "Red" }, "geometry": { "type": "Point", "coordinates": [ 81.30972453, 24.54299155 ] } },
{ "type": "Feature", "properties": { "Id": 38, "Name": "Sirsadher", "Abbr_3": "SIR", "Country": "India", "Category": "City", "lat": 28.06406267, "long": 79.13460468, "elev": -378.349349, "CountryID": 99, "LayerOrder": "3", "Colour": "Red", "TextColour": "Red" }, "geometry": { "type": "Point", "coordinates": [ 79.13460468, 28.06406267 ] } },
{ "type": "Feature", "properties": { "Id": 40, "Name": "Shikarpur", "Abbr_3": "SHK", "Country": "India", "Category": "City", "lat": 28.28075447, "long": 78.01160611, "elev": -2.714008, "CountryID": 99, "LayerOrder": "3", "Colour": "Red", "TextColour": "Red" }, "geometry": { "type": "Point", "coordinates": [ 78.01160611, 28.28075447 ] } },
{ "type": "Feature", "properties": { "Id": 54, "Name": "Bareilly", "Abbr_3": "BAR", "Country": "India", "Category": "City", "lat": 28.34758032, "long": 79.44666995, "elev": -624.837461, "CountryID": 99, "LayerOrder": "3", "Colour": "Red", "TextColour": "Red" }, "geometry": { "type": "Point", "coordinates": [ 79.44666995, 28.34758032 ] } },
{ "type": "Feature", "properties": { "Id": 58, "Name": "Pilibhit", "Abbr_3": "PIL", "Country": "India", "Category": "City", "lat": 28.64354935, "long": 79.8184951, "elev": -714.556189, "CountryID": 99, "LayerOrder": "3", "Colour": "Red", "TextColour": "Red" }, "geometry": { "type": "Point", "coordinates": [ 79.8184951, 28.64354935 ] } },
{ "type": "Feature", "properties": { "Id": 64, "Name": "Rampur", "Abbr_3": "RAM", "Country": "India", "Category": "City", "lat": 28.80367124, "long": 79.03557779, "elev": -716.08201, "CountryID": 99, "LayerOrder": "3", "Colour": "Red", "TextColour": "Red" }, "geometry": { "type": "Point", "coordinates": [ 79.03557779, 28.80367124 ] } },
{ "type": "Feature", "properties": { "Id": 65, "Name": "Moradabad", "Abbr_3": "MOR", "Country": "India", "Category": "City", "lat": 28.8491211, "long": 78.77968043, "elev": -507.878141, "CountryID": 99, "LayerOrder": "3", "Colour": "Red", "TextColour": "Red" }, "geometry": { "type": "Point", "coordinates": [ 78.77968043, 28.8491211 ] } },
{ "type": "Feature", "properties": { "Id": 70, "Name": "Bijnor", "Abbr_3": "BIN", "Country": "India", "Category": "City", "lat": 29.37341787, "long": 78.13558561000001, "elev": -551.711561, "CountryID": 99, "LayerOrder": "3", "Colour": "Red", "TextColour": "Red" }, "geometry": { "type": "Point", "coordinates": [ 78.13558561, 29.37341787 ] } },
{ "type": "Feature", "properties": { "Id": 71, "Name": "Uttarakhand", "Abbr_3": "UTA", "Country": "India", "Category": "City", "lat": 29.39692873, "long": 79.46761275, "elev": -531.867507, "CountryID": 99, "LayerOrder": "3", "Colour": "Red", "TextColour": "Red" }, "geometry": { "type": "Point", "coordinates": [ 79.46761275, 29.39692873 ] } },
{ "type": "Feature", "properties": { "Id": 74, "Name": "Chamoli", "Abbr_3": "CHA", "Country": "India", "Category": "City", "lat": 30.42813512, "long": 79.32942354, "elev": -788.715249, "CountryID": 99, "LayerOrder": "3", "Colour": "Red", "TextColour": "Red" }, "geometry": { "type": "Point", "coordinates": [ 79.32942354, 30.42813512 ] } },
{ "type": "Feature", "properties": { "Id": 76, "Name": "Dehradun", "Abbr_3": "DEH", "Country": "India", "Category": "City", "lat": 30.34146802, "long": 78.03443631, "elev": -1.955428, "CountryID": 99, "LayerOrder": "3", "Colour": "Red", "TextColour": "Red" }, "geometry": { "type": "Point", "coordinates": [ 78.03443631, 30.34146802 ] } },
{ "type": "Feature", "properties": { "Id": 77, "Name": "Marh Uttarakhand", "Abbr_3": "MAU", "Country": "India", "Category": "City", "lat": 29.60893225, "long": 80.23821561, "elev": 250.0, "CountryID": 99, "LayerOrder": "3", "Colour": "Red", "TextColour": "Red" }, "geometry": { "type": "Point", "coordinates": [ 80.23821561, 29.60893225 ] } },
{ "type": "Feature", "properties": { "Id": 78, "Name": "Almora", "Abbr_3": "ALM", "Country": "India", "Category": "City", "lat": 29.60478244, "long": 79.67218752, "elev": -420.234804, "CountryID": 99, "LayerOrder": "3", "Colour": "Red", "TextColour": "Red" }, "geometry": { "type": "Point", "coordinates": [ 79.67218752, 29.60478244 ] } },
{ "type": "Feature", "properties": { "Id": 81, "Name": "Dharkot", "Abbr_3": "DHA", "Country": "India", "Category": "City", "lat": 30.16143236, "long": 78.30715861, "elev": -782.95615, "CountryID": 99, "LayerOrder": "3", "Colour": "Red", "TextColour": "Red" }, "geometry": { "type": "Point", "coordinates": [ 78.30715861, 30.16143236 ] } },
{ "type": "Feature", "properties": { "Id": 82, "Name": "Kaldhung", "Abbr_3": "KAL", "Country": "India", "Category": "City", "lat": 30.15443993, "long": 78.78978638, "elev": -511.188887, "CountryID": 99, "LayerOrder": "3", "Colour": "Red", "TextColour": "Red" }, "geometry": { "type": "Point", "coordinates": [ 78.78978638, 30.15443993 ] } },
{ "type": "Feature", "properties": { "Id": 92, "Name": "Jaipur", "Abbr_3": "JIR", "Country": "India", "Category": "Major City", "lat": 26.93439378, "long": 75.8225151, "elev": -0.007035, "CountryID": 99, "LayerOrder": "2,3", "Colour": "Red", "TextColour": "Red" }, "geometry": { "type": "Point", "coordinates": [ 75.8225151, 26.93439378 ] } },
{ "type": "Feature", "properties": { "Id": 97, "Name": "Shahdol", "Abbr_3": "SHA", "Country": "India", "Category": "City", "lat": 23.31279893, "long": 81.3668139, "elev": 250.0, "CountryID": 99, "LayerOrder": "3", "Colour": "Red", "TextColour": "Red" }, "geometry": { "type": "Point", "coordinates": [ 81.3668139, 23.31279893 ] } },
{ "type": "Feature", "properties": { "Id": 98, "Name": "Ahmedabad", "Abbr_3": "AMD", "Country": "India", "Category": "City", "lat": 23.04123511, "long": 72.59681726, "elev": -0.010482, "CountryID": 99, "LayerOrder": "3", "Colour": "Red", "TextColour": "Red" }, "geometry": { "type": "Point", "coordinates": [ 72.59681726, 23.04123511 ] } },
{ "type": "Feature", "properties": { "Id": 99, "Name": "Keswapur", "Abbr_3": "KES", "Country": "India", "Category": "City", "lat": 27.14425599, "long": 81.92699155, "elev": 250.0, "CountryID": 99, "LayerOrder": "3", "Colour": "Red", "TextColour": "Red" }, "geometry": { "type": "Point", "coordinates": [ 81.92699155, 27.14425599 ] } },
{ "type": "Feature", "properties": { "Id": 103, "Name": "Mahesana", "Abbr_3": "MAS", "Country": "India", "Category": "City", "lat": 23.61259919, "long": 72.41067039000001, "elev": -0.008174, "CountryID": 99, "LayerOrder": "3", "Colour": "Red", "TextColour": "Red" }, "geometry": { "type": "Point", "coordinates": [ 72.41067039, 23.61259919 ] } },
{ "type": "Feature", "properties": { "Id": 105, "Name": "Himatnagar", "Abbr_3": "HTN", "Country": "India", "Category": "City", "lat": 23.62541998, "long": 72.95866825, "elev": -0.008123, "CountryID": 99, "LayerOrder": "3", "Colour": "Red", "TextColour": "Red" }, "geometry": { "type": "Point", "coordinates": [ 72.95866825, 23.62541998 ] } },
{ "type": "Feature", "properties": { "Id": 106, "Name": "Banswara", "Abbr_3": "BNS", "Country": "India", "Category": "City", "lat": 23.5677301, "long": 74.45569839, "elev": -0.011402, "CountryID": 99, "LayerOrder": "3", "Colour": "Red", "TextColour": "Red" }, "geometry": { "type": "Point", "coordinates": [ 74.45569839, 23.5677301 ] } },
{ "type": "Feature", "properties": { "Id": 108, "Name": "Dungarpur", "Abbr_3": "DUN", "Country": "India", "Category": "City", "lat": 23.86107436, "long": 73.72494157, "elev": -0.009227, "CountryID": 99, "LayerOrder": "3", "Colour": "Red", "TextColour": "Red" }, "geometry": { "type": "Point", "coordinates": [ 73.72494157, 23.86107436 ] } },
{ "type": "Feature", "properties": { "Id": 109, "Name": "Hathras", "Abbr_3": "HAT", "Country": "India", "Category": "City", "lat": 27.59452485, "long": 78.05353055, "elev": -827.276561, "CountryID": 99, "LayerOrder": "3", "Colour": "Red", "TextColour": "Red" }, "geometry": { "type": "Point", "coordinates": [ 78.05353055, 27.59452485 ] } },
{ "type": "Feature", "properties": { "Id": 110, "Name": "Bahraich", "Abbr_3": "BAH", "Country": "India", "Category": "City", "lat": 27.58280336, "long": 81.59275398, "elev": 250.0, "CountryID": 99, "LayerOrder": "3", "Colour": "Red", "TextColour": "Red" }, "geometry": { "type": "Point", "coordinates": [ 81.59275398, 27.58280336 ] } },
{ "type": "Feature", "properties": { "Id": 111, "Name": "Vidisha", "Abbr_3": "VID", "Country": "India", "Category": "City", "lat": 23.54770714, "long": 77.80788582, "elev": -0.011919, "CountryID": 99, "LayerOrder": "3", "Colour": "Red", "TextColour": "Red" }, "geometry": { "type": "Point", "coordinates": [ 77.80788582, 23.54770714 ] } },
{ "type": "Feature", "properties": { "Id": 112, "Name": "Chitoda", "Abbr_3": "CHI", "Country": "India", "Category": "City", "lat": 23.44800239, "long": 76.27440781, "elev": -0.012587, "CountryID": 99, "LayerOrder": "3", "Colour": "Red", "TextColour": "Red" }, "geometry": { "type": "Point", "coordinates": [ 76.27440781, 23.44800239 ] } },
{ "type": "Feature", "properties": { "Id": 113, "Name": "Kandeli", "Abbr_3": "KAN", "Country": "India", "Category": "City", "lat": 22.95636435, "long": 79.20353809, "elev": -773.954907, "CountryID": 99, "LayerOrder": "3", "Colour": "Red", "TextColour": "Red" }, "geometry": { "type": "Point", "coordinates": [ 79.20353809, 22.95636435 ] } },
{ "type": "Feature", "properties": { "Id": 114, "Name": "Ratlam", "Abbr_3": "TTM", "Country": "India", "Category": "City", "lat": 23.34337611, "long": 75.04602721000001, "elev": -0.012325, "CountryID": 99, "LayerOrder": "3", "Colour": "Red", "TextColour": "Red" }, "geometry": { "type": "Point", "coordinates": [ 75.04602721, 23.34337611 ] } },
{ "type": "Feature", "properties": { "Id": 115, "Name": "Ujjain", "Abbr_3": "UJJ", "Country": "India", "Category": "City", "lat": 23.20437903, "long": 75.78255239000001, "elev": -0.00921, "CountryID": 99, "LayerOrder": "3", "Colour": "Red", "TextColour": "Red" }, "geometry": { "type": "Point", "coordinates": [ 75.78255239, 23.20437903 ] } },
{ "type": "Feature", "properties": { "Id": 116, "Name": "Jabalpur", "Abbr_3": "JAB", "Country": "India", "Category": "City", "lat": 23.16486013, "long": 79.95890576, "elev": 250.0, "CountryID": 99, "LayerOrder": "3", "Colour": "Red", "TextColour": "Red" }, "geometry": { "type": "Point", "coordinates": [ 79.95890576, 23.16486013 ] } },
{ "type": "Feature", "properties": { "Id": 117, "Name": "Naulakha Agra", "Abbr_3": "NAU", "Country": "India", "Category": "City", "lat": 27.15753669, "long": 78.01266817, "elev": -1.469988, "CountryID": 99, "LayerOrder": "3", "Colour": "Red", "TextColour": "Red" }, "geometry": { "type": "Point", "coordinates": [ 78.01266817, 27.15753669 ] } },
{ "type": "Feature", "properties": { "Id": 118, "Name": "Ambikapur", "Abbr_3": "AMI", "Country": "India", "Category": "City", "lat": 23.12336776, "long": 83.20278769, "elev": 250.0, "CountryID": 99, "LayerOrder": "3", "Colour": "Red", "TextColour": "Red" }, "geometry": { "type": "Point", "coordinates": [ 83.20278769, 23.12336776 ] } },
{ "type": "Feature", "properties": { "Id": 119, "Name": "Bhopal", "Abbr_3": "BHO", "Country": "India", "Category": "City", "lat": 23.27411234, "long": 77.41419478, "elev": -0.005658, "CountryID": 99, "LayerOrder": "3", "Colour": "Red", "TextColour": "Red" }, "geometry": { "type": "Point", "coordinates": [ 77.41419478, 23.27411234 ] } },
{ "type": "Feature", "properties": { "Id": 120, "Name": "Dewas", "Abbr_3": "DEW", "Country": "India", "Category": "City", "lat": 22.97878384, "long": 76.06975755000001, "elev": -3.436507, "CountryID": 99, "LayerOrder": "3", "Colour": "Red", "TextColour": "Red" }, "geometry": { "type": "Point", "coordinates": [ 76.06975755, 22.97878384 ] } },
{ "type": "Feature", "properties": { "Id": 121, "Name": "Basti", "Abbr_3": "BAS", "Country": "India", "Category": "City", "lat": 26.80439579, "long": 82.71777977000001, "elev": 250.0, "CountryID": 99, "LayerOrder": "3", "Colour": "Red", "TextColour": "Red" }, "geometry": { "type": "Point", "coordinates": [ 82.71777977, 26.80439579 ] } },
{ "type": "Feature", "properties": { "Id": 122, "Name": "Bhind", "Abbr_3": "BHI", "Country": "India", "Category": "City", "lat": 26.58070151, "long": 78.79258777, "elev": -214.421998, "CountryID": 99, "LayerOrder": "3", "Colour": "Red", "TextColour": "Red" }, "geometry": { "type": "Point", "coordinates": [ 78.79258777, 26.58070151 ] } },
{ "type": "Feature", "properties": { "Id": 123, "Name": "Gwalior", "Abbr_3": "GWA", "Country": "India", "Category": "City", "lat": 26.23206371, "long": 78.23323475, "elev": -792.863316, "CountryID": 99, "LayerOrder": "3", "Colour": "Red", "TextColour": "Red" }, "geometry": { "type": "Point", "coordinates": [ 78.23323475, 26.23206371 ] } },
{ "type": "Feature", "properties": { "Id": 124, "Name": "Binaika", "Abbr_3": "BIA", "Country": "India", "Category": "City", "lat": 22.62053519, "long": 80.38154164, "elev": 250.0, "CountryID": 99, "LayerOrder": "3", "Colour": "Red", "TextColour": "Red" }, "geometry": { "type": "Point", "coordinates": [ 80.38154164, 22.62053519 ] } },
{ "type": "Feature", "properties": { "Id": 125, "Name": "Raebareli", "Abbr_3": "RAE", "Country": "India", "Category": "City", "lat": 26.23656562, "long": 81.23804328, "elev": 250.0, "CountryID": 99, "LayerOrder": "3", "Colour": "Red", "TextColour": "Red" }, "geometry": { "type": "Point", "coordinates": [ 81.23804328, 26.23656562 ] } },
{ "type": "Feature", "properties": { "Id": 126, "Name": "Sultanpur", "Abbr_3": "SUL", "Country": "India", "Category": "City", "lat": 26.27518277, "long": 82.07425485, "elev": 250.0, "CountryID": 99, "LayerOrder": "3", "Colour": "Red", "TextColour": "Red" }, "geometry": { "type": "Point", "coordinates": [ 82.07425485, 26.27518277 ] } },
{ "type": "Feature", "properties": { "Id": 127, "Name": "Chhindwara", "Abbr_3": "CHH", "Country": "India", "Category": "Major City", "lat": 22.06853454, "long": 78.93669718, "elev": -1406.823148, "CountryID": 99, "LayerOrder": "2,3", "Colour": "Red", "TextColour": "Red" }, "geometry": { "type": "Point", "coordinates": [ 78.93669718, 22.06853454 ] } },
{ "type": "Feature", "properties": { "Id": 128, "Name": "Partapur", "Abbr_3": "PAR", "Country": "India", "Category": "City", "lat": 22.10292846, "long": 79.54195629, "elev": -2273.034163, "CountryID": 99, "LayerOrder": "3", "Colour": "Red", "TextColour": "Red" }, "geometry": { "type": "Point", "coordinates": [ 79.54195629, 22.10292846 ] } },
{ "type": "Feature", "properties": { "Id": 129, "Name": "Bilaspur", "Abbr_3": "BIL", "Country": "India", "Category": "City", "lat": 22.1052302, "long": 82.14488826, "elev": 250.0, "CountryID": 99, "LayerOrder": "3", "Colour": "Red", "TextColour": "Red" }, "geometry": { "type": "Point", "coordinates": [ 82.14488826, 22.1052302 ] } },
{ "type": "Feature", "properties": { "Id": 130, "Name": "Raigarh", "Abbr_3": "RAJ", "Country": "India", "Category": "City", "lat": 21.9187188, "long": 83.39574141, "elev": 250.0, "CountryID": 99, "LayerOrder": "3", "Colour": "Red", "TextColour": "Red" }, "geometry": { "type": "Point", "coordinates": [ 83.39574141, 21.9187188 ] } },
{ "type": "Feature", "properties": { "Id": 131, "Name": "Ghazipur", "Abbr_3": "GHZ", "Country": "India", "Category": "City", "lat": 25.58458401, "long": 83.56539041000001, "elev": 250.0, "CountryID": 99, "LayerOrder": "3", "Colour": "Red", "TextColour": "Red" }, "geometry": { "type": "Point", "coordinates": [ 83.56539041, 25.58458401 ] } },
{ "type": "Feature", "properties": { "Id": 132, "Name": "Balaghat", "Abbr_3": "BAA", "Country": "India", "Category": "City", "lat": 21.83374914, "long": 80.18837898, "elev": 250.0, "CountryID": 99, "LayerOrder": "3", "Colour": "Red", "TextColour": "Red" }, "geometry": { "type": "Point", "coordinates": [ 80.18837898, 21.83374914 ] } },
{ "type": "Feature", "properties": { "Id": 133, "Name": "Mawai Buzurg", "Abbr_3": "MAW", "Country": "India", "Category": "City", "lat": 25.49433889, "long": 80.3492734, "elev": 250.0, "CountryID": 99, "LayerOrder": "3", "Colour": "Red", "TextColour": "Red" }, "geometry": { "type": "Point", "coordinates": [ 80.3492734, 25.49433889 ] } },
{ "type": "Feature", "properties": { "Id": 134, "Name": "Odisha", "Abbr_3": "ODI", "Country": "India", "Category": "City", "lat": 21.46879405, "long": 83.98224785, "elev": 250.0, "CountryID": 99, "LayerOrder": "3", "Colour": "Red", "TextColour": "Red" }, "geometry": { "type": "Point", "coordinates": [ 83.98224785, 21.46879405 ] } },
{ "type": "Feature", "properties": { "Id": 135, "Name": "Raipur", "Abbr_3": "RAP", "Country": "India", "Category": "City", "lat": 21.25661638, "long": 81.62599044, "elev": 250.0, "CountryID": 99, "LayerOrder": "3", "Colour": "Red", "TextColour": "Red" }, "geometry": { "type": "Point", "coordinates": [ 81.62599044, 21.25661638 ] } },
{ "type": "Feature", "properties": { "Id": 136, "Name": "Durg", "Abbr_3": "DUR", "Country": "India", "Category": "City", "lat": 21.20817381, "long": 81.28320292, "elev": 250.0, "CountryID": 99, "LayerOrder": "3", "Colour": "Red", "TextColour": "Red" }, "geometry": { "type": "Point", "coordinates": [ 81.28320292, 21.20817381 ] } },
{ "type": "Feature", "properties": { "Id": 137, "Name": "Bhandara", "Abbr_3": "BHN", "Country": "India", "Category": "City", "lat": 21.18176891, "long": 79.6557565, "elev": -3363.50129, "CountryID": 99, "LayerOrder": "3", "Colour": "Red", "TextColour": "Red" }, "geometry": { "type": "Point", "coordinates": [ 79.6557565, 21.18176891 ] } },
{ "type": "Feature", "properties": { "Id": 138, "Name": "Nagpur", "Abbr_3": "NAG", "Country": "India", "Category": "City", "lat": 21.16004533, "long": 79.07047512, "elev": -2582.448944, "CountryID": 99, "LayerOrder": "3", "Colour": "Red", "TextColour": "Red" }, "geometry": { "type": "Point", "coordinates": [ 79.07047512, 21.16004533 ] } },
{ "type": "Feature", "properties": { "Id": 139, "Name": "Balangir", "Abbr_3": "BAN", "Country": "India", "Category": "City", "lat": 20.72331632, "long": 83.49258034, "elev": 250.0, "CountryID": 99, "LayerOrder": "3", "Colour": "Red", "TextColour": "Red" }, "geometry": { "type": "Point", "coordinates": [ 83.49258034, 20.72331632 ] } },
{ "type": "Feature", "properties": { "Id": 140, "Name": "Kheda", "Abbr_3": "KHE", "Country": "India", "Category": "City", "lat": 22.77458032, "long": 72.69392087, "elev": -210.561436, "CountryID": 99, "LayerOrder": "3", "Colour": "Red", "TextColour": "Red" }, "geometry": { "type": "Point", "coordinates": [ 72.69392087, 22.77458032 ] } },
{ "type": "Feature", "properties": { "Id": 141, "Name": "Wardha", "Abbr_3": "WAR", "Country": "India", "Category": "City", "lat": 20.75397644, "long": 78.60404932, "elev": 250.0, "CountryID": 99, "LayerOrder": "3", "Colour": "Red", "TextColour": "Red" }, "geometry": { "type": "Point", "coordinates": [ 78.60404932, 20.75397644 ] } },
{ "type": "Feature", "properties": { "Id": 142, "Name": "Yavatmal", "Abbr_3": "YAV", "Country": "India", "Category": "City", "lat": 20.39502171, "long": 78.13959909, "elev": 250.0, "CountryID": 99, "LayerOrder": "3", "Colour": "Red", "TextColour": "Red" }, "geometry": { "type": "Point", "coordinates": [ 78.13959909, 20.39502171 ] } },
{ "type": "Feature", "properties": { "Id": 146, "Name": "Khattalwada", "Abbr_3": "KHT", "Country": "India", "Category": "City", "lat": 20.43057251, "long": 72.84660506, "elev": 250.0, "CountryID": 99, "LayerOrder": "3", "Colour": "Red", "TextColour": "Red" }, "geometry": { "type": "Point", "coordinates": [ 72.84660506, 20.43057251 ] } },
{ "type": "Feature", "properties": { "Id": 147, "Name": "Dhar", "Abbr_3": "DHR", "Country": "India", "Category": "City", "lat": 22.61622734, "long": 75.30289365, "elev": -101.87126, "CountryID": 99, "LayerOrder": "3", "Colour": "Red", "TextColour": "Red" }, "geometry": { "type": "Point", "coordinates": [ 75.30289365, 22.61622734 ] } },
{ "type": "Feature", "properties": { "Id": 148, "Name": "Buldana", "Abbr_3": "BUD", "Country": "India", "Category": "Major City", "lat": 20.55365639, "long": 76.17930494, "elev": 250.0, "CountryID": 99, "LayerOrder": "2,3", "Colour": "Red", "TextColour": "Red" }, "geometry": { "type": "Point", "coordinates": [ 76.17930494, 20.55365639 ] } },
{ "type": "Feature", "properties": { "Id": 149, "Name": "Bharuch", "Abbr_3": "BCH", "Country": "India", "Category": "City", "lat": 21.71124623, "long": 72.97799025, "elev": -1872.259358, "CountryID": 99, "LayerOrder": "3", "Colour": "Red", "TextColour": "Red" }, "geometry": { "type": "Point", "coordinates": [ 72.97799025, 21.71124623 ] } },
{ "type": "Feature", "properties": { "Id": 150, "Name": "Khargon", "Abbr_3": "KGN", "Country": "India", "Category": "City", "lat": 21.84442002, "long": 75.61607655, "elev": -2040.525686, "CountryID": 99, "LayerOrder": "3", "Colour": "Red", "TextColour": "Red" }, "geometry": { "type": "Point", "coordinates": [ 75.61607655, 21.84442002 ] } },
{ "type": "Feature", "properties": { "Id": 151, "Name": "Khandwa", "Abbr_3": "KHA", "Country": "India", "Category": "City", "lat": 21.84581311, "long": 76.33464707, "elev": -2173.447327, "CountryID": 99, "LayerOrder": "3", "Colour": "Red", "TextColour": "Red" }, "geometry": { "type": "Point", "coordinates": [ 76.33464707, 21.84581311 ] } },
{ "type": "Feature", "properties": { "Id": 152, "Name": "Indore", "Abbr_3": "IND", "Country": "India", "Category": "City", "lat": 22.73833005, "long": 75.85349512000001, "elev": -150.013741, "CountryID": 99, "LayerOrder": "3", "Colour": "Red", "TextColour": "Red" }, "geometry": { "type": "Point", "coordinates": [ 75.85349512, 22.73833005 ] } },
{ "type": "Feature", "properties": { "Id": 153, "Name": "Vadodara", "Abbr_3": "VDR", "Country": "India", "Category": "City", "lat": 22.32553896, "long": 73.21887179, "elev": -661.718691, "CountryID": 99, "LayerOrder": "3", "Colour": "Red", "TextColour": "Red" }, "geometry": { "type": "Point", "coordinates": [ 73.21887179, 22.32553896 ] } },
{ "type": "Feature", "properties": { "Id": 154, "Name": "Bhavnagar", "Abbr_3": "BVG", "Country": "India", "Category": "City", "lat": 21.78674689, "long": 72.16122276, "elev": -2947.439896, "CountryID": 99, "LayerOrder": "3", "Colour": "Red", "TextColour": "Red" }, "geometry": { "type": "Point", "coordinates": [ 72.16122276, 21.78674689 ] } },
{ "type": "Feature", "properties": { "Id": 155, "Name": "Dhule", "Abbr_3": "DHL", "Country": "India", "Category": "City", "lat": 20.92529164, "long": 74.79164449, "elev": -3499.903004, "CountryID": 99, "LayerOrder": "3", "Colour": "Red", "TextColour": "Red" }, "geometry": { "type": "Point", "coordinates": [ 74.79164449, 20.92529164 ] } },
{ "type": "Feature", "properties": { "Id": 156, "Name": "Ghoghli", "Abbr_3": "GHG", "Country": "India", "Category": "City", "lat": 20.76985275, "long": 73.66243168, "elev": 250.0, "CountryID": 99, "LayerOrder": "3", "Colour": "Red", "TextColour": "Red" }, "geometry": { "type": "Point", "coordinates": [ 73.66243168, 20.76985275 ] } },
{ "type": "Feature", "properties": { "Id": 157, "Name": "Akola", "Abbr_3": "AKO", "Country": "India", "Category": "City", "lat": 20.71916078, "long": 76.99584456, "elev": 250.0, "CountryID": 99, "LayerOrder": "3", "Colour": "Red", "TextColour": "Red" }, "geometry": { "type": "Point", "coordinates": [ 76.99584456, 20.71916078 ] } },
{ "type": "Feature", "properties": { "Id": 158, "Name": "Betul", "Abbr_3": "BET", "Country": "India", "Category": "City", "lat": 21.925946, "long": 77.89979399000001, "elev": -2645.841724, "CountryID": 99, "LayerOrder": "3", "Colour": "Red", "TextColour": "Red" }, "geometry": { "type": "Point", "coordinates": [ 77.89979399, 21.925946 ] } },
{ "type": "Feature", "properties": { "Id": 166, "Name": "Farrukhabad", "Abbr_3": "FAR", "Country": "India", "Category": "City", "lat": 27.40396098, "long": 79.57465527, "elev": -844.820835, "CountryID": 99, "LayerOrder": "3", "Colour": "Red", "TextColour": "Red" }, "geometry": { "type": "Point", "coordinates": [ 79.57465527, 27.40396098 ] } },
{ "type": "Feature", "properties": { "Id": 167, "Name": "Gorakhpur", "Abbr_3": "GOR", "Country": "India", "Category": "City", "lat": 26.75904881, "long": 83.3693592, "elev": 250.0, "CountryID": 99, "LayerOrder": "3", "Colour": "Red", "TextColour": "Red" }, "geometry": { "type": "Point", "coordinates": [ 83.3693592, 26.75904881 ] } },
{ "type": "Feature", "properties": { "Id": 168, "Name": "Jhansi", "Abbr_3": "JHA", "Country": "India", "Category": "City", "lat": 25.46611785, "long": 78.57919094, "elev": -352.474752, "CountryID": 99, "LayerOrder": "3", "Colour": "Red", "TextColour": "Red" }, "geometry": { "type": "Point", "coordinates": [ 78.57919094, 25.46611785 ] } },
{ "type": "Feature", "properties": { "Id": 169, "Name": "Aligarh", "Abbr_3": "ALI", "Country": "India", "Category": "Major City", "lat": 27.88241445, "long": 78.06806929, "elev": -649.736283, "CountryID": 99, "LayerOrder": "2,3", "Colour": "Red", "TextColour": "Red" }, "geometry": { "type": "Point", "coordinates": [ 78.06806929, 27.88241445 ] } },
{ "type": "Feature", "properties": { "Id": 170, "Name": "Bhadeli Desai", "Abbr_3": "BHA", "Country": "India", "Category": "City", "lat": 20.63499491, "long": 72.92791048, "elev": 250.0, "CountryID": 99, "LayerOrder": "3", "Colour": "Red", "TextColour": "Red" }, "geometry": { "type": "Point", "coordinates": [ 72.92791048, 20.63499491 ] } },
{ "type": "Feature", "properties": { "Id": 171, "Name": "Surat", "Abbr_3": "SRT", "Country": "India", "Category": "City", "lat": 21.21837053, "long": 72.83564314, "elev": -2511.957456, "CountryID": 99, "LayerOrder": "3", "Colour": "Red", "TextColour": "Red" }, "geometry": { "type": "Point", "coordinates": [ 72.83564314, 21.21837053 ] } },
{ "type": "Feature", "properties": { "Id": 172, "Name": "Jalgaon", "Abbr_3": "JGN", "Country": "India", "Category": "City", "lat": 21.02799297, "long": 75.57908669, "elev": -2649.996381, "CountryID": 99, "LayerOrder": "3", "Colour": "Red", "TextColour": "Red" }, "geometry": { "type": "Point", "coordinates": [ 75.57908669, 21.02799297 ] } },
{ "type": "Feature", "properties": { "Id": 173, "Name": "Silvassa", "Abbr_3": "SIL", "Country": "India", "Category": "City", "lat": 20.27888381, "long": 73.00354645, "elev": 250.0, "CountryID": 99, "LayerOrder": "3", "Colour": "Red", "TextColour": "Red" }, "geometry": { "type": "Point", "coordinates": [ 73.00354645, 20.27888381 ] } },
{ "type": "Feature", "properties": { "Id": 174, "Name": "Amravati", "Abbr_3": "AMV", "Country": "India", "Category": "City", "lat": 20.9493792, "long": 77.78080951, "elev": -3402.587137, "CountryID": 99, "LayerOrder": "3", "Colour": "Red", "TextColour": "Red" }, "geometry": { "type": "Point", "coordinates": [ 77.78080951, 20.9493792 ] } },
{ "type": "Feature", "properties": { "Id": 177, "Name": "Manavadar", "Abbr_3": "MAN", "Country": "India", "Category": "City", "lat": 21.52177445, "long": 70.14580999, "elev": -2104.885532, "CountryID": 99, "LayerOrder": "3", "Colour": "Red", "TextColour": "Red" }, "geometry": { "type": "Point", "coordinates": [ 70.14580999, 21.52177445 ] } },
{ "type": "Feature", "properties": { "Id": 178, "Name": "Sirohi", "Abbr_3": "SHI", "Country": "India", "Category": "City", "lat": 24.90400758, "long": 72.87007816000001, "elev": -0.012577, "CountryID": 99, "LayerOrder": "3", "Colour": "Red", "TextColour": "Red" }, "geometry": { "type": "Point", "coordinates": [ 72.87007816, 24.90400758 ] } },
{ "type": "Feature", "properties": { "Id": 179, "Name": "Merta", "Abbr_3": "MRT", "Country": "India", "Category": "City", "lat": 26.65654013, "long": 74.04134788, "elev": -0.009915, "CountryID": 99, "LayerOrder": "3", "Colour": "Red", "TextColour": "Red" }, "geometry": { "type": "Point", "coordinates": [ 74.04134788, 26.65654013 ] } },
{ "type": "Feature", "properties": { "Id": 193, "Name": "Jhunjhunu", "Abbr_3": "JNJ", "Country": "India", "Category": "City", "lat": 28.13955044, "long": 75.40468576000001, "elev": -0.00675, "CountryID": 99, "LayerOrder": "3", "Colour": "Red", "TextColour": "Red" }, "geometry": { "type": "Point", "coordinates": [ 75.40468576, 28.13955044 ] } },
{ "type": "Feature", "properties": { "Id": 195, "Name": "Ghaziabad", "Abbr_3": "GHA", "Country": "India", "Category": "City", "lat": 28.66552364, "long": 77.43075212, "elev": -0.010063, "CountryID": 99, "LayerOrder": "3", "Colour": "Red", "TextColour": "Red" }, "geometry": { "type": "Point", "coordinates": [ 77.43075212, 28.66552364 ] } },
{ "type": "Feature", "properties": { "Id": 201, "Name": "Bulandshahr", "Abbr_3": "BUL", "Country": "India", "Category": "City", "lat": 28.40783428, "long": 77.86067811, "elev": -0.009405, "CountryID": 99, "LayerOrder": "3", "Colour": "Red", "TextColour": "Red" }, "geometry": { "type": "Point", "coordinates": [ 77.86067811, 28.40783428 ] } },
{ "type": "Feature", "properties": { "Id": 205, "Name": "Anjar", "Abbr_3": "AJR", "Country": "India", "Category": "City", "lat": 23.14105256, "long": 70.02980469000001, "elev": -0.01229, "CountryID": 99, "LayerOrder": "3", "Colour": "Red", "TextColour": "Red" }, "geometry": { "type": "Point", "coordinates": [ 70.02980469, 23.14105256 ] } },
{ "type": "Feature", "properties": { "Id": 208, "Name": "Tharad", "Abbr_3": "THA", "Country": "India", "Category": "City", "lat": 24.39783351, "long": 71.63286169, "elev": 42.123241, "CountryID": 99, "LayerOrder": "3", "Colour": "Red", "TextColour": "Red" }, "geometry": { "type": "Point", "coordinates": [ 71.63286169, 24.39783351 ] } },
{ "type": "Feature", "properties": { "Id": 210, "Name": "Loharu", "Abbr_3": "LHR", "Country": "India", "Category": "City", "lat": 28.44046147, "long": 75.80605803, "elev": -0.008652, "CountryID": 99, "LayerOrder": "3", "Colour": "Red", "TextColour": "Red" }, "geometry": { "type": "Point", "coordinates": [ 75.80605803, 28.44046147 ] } },
{ "type": "Feature", "properties": { "Id": 211, "Name": "Radhanpur", "Abbr_3": "RDP", "Country": "India", "Category": "City", "lat": 23.83928091, "long": 71.60218502, "elev": 34.556762, "CountryID": 99, "LayerOrder": "3", "Colour": "Red", "TextColour": "Red" }, "geometry": { "type": "Point", "coordinates": [ 71.60218502, 23.83928091 ] } },
{ "type": "Feature", "properties": { "Id": 213, "Name": "Shimla", "Abbr_3": "SHM", "Country": "India", "Category": "City", "lat": 31.1161677, "long": 77.16614682, "elev": -0.012046, "CountryID": 99, "LayerOrder": "3", "Colour": "Red", "TextColour": "Red" }, "geometry": { "type": "Point", "coordinates": [ 77.16614682, 31.1161677 ] } },
{ "type": "Feature", "properties": { "Id": 215, "Name": "Himachal", "Abbr_3": "HIM", "Country": "India", "Category": "Major City", "lat": 32.22049998, "long": 76.3136673, "elev": -0.012426, "CountryID": 99, "LayerOrder": "2,3", "Colour": "Red", "TextColour": "Red" }, "geometry": { "type": "Point", "coordinates": [ 76.3136673, 32.22049998 ] } },
{ "type": "Feature", "properties": { "Id": 221, "Name": "Ajmer", "Abbr_3": "AMR", "Country": "India", "Category": "City", "lat": 26.46783358, "long": 74.6489526, "elev": -0.012122, "CountryID": 99, "LayerOrder": "3", "Colour": "Red", "TextColour": "Red" }, "geometry": { "type": "Point", "coordinates": [ 74.6489526, 26.46783358 ] } },
{ "type": "Feature", "properties": { "Id": 225, "Name": "Kodinar", "Abbr_3": "KDN", "Country": "India", "Category": "City", "lat": 20.81099403, "long": 70.70401537, "elev": -2637.378281, "CountryID": 99, "LayerOrder": "3", "Colour": "Red", "TextColour": "Red" }, "geometry": { "type": "Point", "coordinates": [ 70.70401537, 20.81099403 ] } },
{ "type": "Feature", "properties": { "Id": 226, "Name": "Gurugram", "Abbr_3": "GUR", "Country": "India", "Category": "City", "lat": 28.46799234, "long": 77.02801895, "elev": -0.012844, "CountryID": 99, "LayerOrder": "3", "Colour": "Red", "TextColour": "Red" }, "geometry": { "type": "Point", "coordinates": [ 77.02801895, 28.46799234 ] } },
{ "type": "Feature", "properties": { "Id": 227, "Name": "Ambala", "Abbr_3": "AMB", "Country": "India", "Category": "City", "lat": 30.38677292, "long": 76.76764366, "elev": -0.007927, "CountryID": 99, "LayerOrder": "3", "Colour": "Red", "TextColour": "Red" }, "geometry": { "type": "Point", "coordinates": [ 76.76764366, 30.38677292 ] } },
{ "type": "Feature", "properties": { "Id": 229, "Name": "Patiala", "Abbr_3": "PTA", "Country": "India", "Category": "City", "lat": 30.33238474, "long": 76.40030079, "elev": -0.007985, "CountryID": 99, "LayerOrder": "3", "Colour": "Red", "TextColour": "Red" }, "geometry": { "type": "Point", "coordinates": [ 76.40030079, 30.33238474 ] } },
{ "type": "Feature", "properties": { "Id": 231, "Name": "Diyodar", "Abbr_3": "DIY", "Country": "India", "Category": "City", "lat": 24.10146747, "long": 71.78157269, "elev": 51.961696, "CountryID": 99, "LayerOrder": "3", "Colour": "Red", "TextColour": "Red" }, "geometry": { "type": "Point", "coordinates": [ 71.78157269, 24.10146747 ] } },
{ "type": "Feature", "properties": { "Id": 232, "Name": "Dhrangadhra", "Abbr_3": "HRA", "Country": "India", "Category": "City", "lat": 23.00081444, "long": 71.45624465, "elev": -0.008275, "CountryID": 99, "LayerOrder": "3", "Colour": "Red", "TextColour": "Red" }, "geometry": { "type": "Point", "coordinates": [ 71.45624465, 23.00081444 ] } },
{ "type": "Feature", "properties": { "Id": 233, "Name": "Sangrur", "Abbr_3": "SPR", "Country": "India", "Category": "City", "lat": 30.25106297, "long": 75.84192025, "elev": -0.006319, "CountryID": 99, "LayerOrder": "3", "Colour": "Red", "TextColour": "Red" }, "geometry": { "type": "Point", "coordinates": [ 75.84192025, 30.25106297 ] } },
{ "type": "Feature", "properties": { "Id": 235, "Name": "Nabha", "Abbr_3": "NBA", "Country": "India", "Category": "City", "lat": 30.38363483, "long": 76.14996089, "elev": -0.00892, "CountryID": 99, "LayerOrder": "3", "Colour": "Red", "TextColour": "Red" }, "geometry": { "type": "Point", "coordinates": [ 76.14996089, 30.38363483 ] } },
{ "type": "Feature", "properties": { "Id": 237, "Name": "Malerkotla", "Abbr_3": "MTA", "Country": "India", "Category": "City", "lat": 30.53503184, "long": 75.88813807, "elev": -0.00602, "CountryID": 99, "LayerOrder": "3", "Colour": "Red", "TextColour": "Red" }, "geometry": { "type": "Point", "coordinates": [ 75.88813807, 30.53503184 ] } },
{ "type": "Feature", "properties": { "Id": 242, "Name": "Jamnagar", "Abbr_3": "JMR", "Country": "India", "Category": "City", "lat": 22.54496429, "long": 70.0300007, "elev": -126.893434, "CountryID": 99, "LayerOrder": "3", "Colour": "Red", "TextColour": "Red" }, "geometry": { "type": "Point", "coordinates": [ 70.0300007, 22.54496429 ] } },
{ "type": "Feature", "properties": { "Id": 250, "Name": "Jind", "Abbr_3": "JND", "Country": "India", "Category": "City", "lat": 29.33137219, "long": 76.31537513000001, "elev": -0.010622, "CountryID": 99, "LayerOrder": "3", "Colour": "Red", "TextColour": "Red" }, "geometry": { "type": "Point", "coordinates": [ 76.31537513, 29.33137219 ] } },
{ "type": "Feature", "properties": { "Id": 252, "Name": "Amreli", "Abbr_3": "AML", "Country": "India", "Category": "City", "lat": 21.6222559, "long": 71.20354964000001, "elev": -3085.149845, "CountryID": 99, "LayerOrder": "3", "Colour": "Red", "TextColour": "Red" }, "geometry": { "type": "Point", "coordinates": [ 71.20354964, 21.6222559 ] } },
{ "type": "Feature", "properties": { "Id": 255, "Name": "Mirzapur", "Abbr_3": "MIR", "Country": "India", "Category": "City", "lat": 28.32894225, "long": 76.77307365, "elev": -0.005477, "CountryID": 99, "LayerOrder": "3", "Colour": "Red", "TextColour": "Red" }, "geometry": { "type": "Point", "coordinates": [ 76.77307365, 28.32894225 ] } },
{ "type": "Feature", "properties": { "Id": 258, "Name": "Limbdi", "Abbr_3": "LBD", "Country": "India", "Category": "City", "lat": 22.57763747, "long": 71.80596773000001, "elev": -91.354748, "CountryID": 99, "LayerOrder": "3", "Colour": "Red", "TextColour": "Red" }, "geometry": { "type": "Point", "coordinates": [ 71.80596773, 22.57763747 ] } },
{ "type": "Feature", "properties": { "Id": 266, "Name": "Panipat", "Abbr_3": "PPT", "Country": "India", "Category": "City", "lat": 29.70207426, "long": 76.98358336, "elev": -0.008008, "CountryID": 99, "LayerOrder": "3", "Colour": "Red", "TextColour": "Red" }, "geometry": { "type": "Point", "coordinates": [ 76.98358336, 29.70207426 ] } },
{ "type": "Feature", "properties": { "Id": 269, "Name": "Hisar", "Abbr_3": "HSR", "Country": "India", "Category": "City", "lat": 29.16753194, "long": 75.72719738000001, "elev": -0.009445, "CountryID": 99, "LayerOrder": "3", "Colour": "Red", "TextColour": "Red" }, "geometry": { "type": "Point", "coordinates": [ 75.72719738, 29.16753194 ] } },
{ "type": "Feature", "properties": { "Id": 272, "Name": "Muzaffarnagar", "Abbr_3": "MUZ", "Country": "India", "Category": "City", "lat": 29.47721107, "long": 77.69093426000001, "elev": -0.007564, "CountryID": 99, "LayerOrder": "3", "Colour": "Red", "TextColour": "Red" }, "geometry": { "type": "Point", "coordinates": [ 77.69093426, 29.47721107 ] } },
{ "type": "Feature", "properties": { "Id": 274, "Name": "Rajkot", "Abbr_3": "RKT", "Country": "India", "Category": "City", "lat": 22.32746354, "long": 70.79274011, "elev": -1382.527463, "CountryID": 99, "LayerOrder": "3", "Colour": "Red", "TextColour": "Red" }, "geometry": { "type": "Point", "coordinates": [ 70.79274011, 22.32746354 ] } },
{ "type": "Feature", "properties": { "Id": 276, "Name": "Firuzpur", "Abbr_3": "FZR", "Country": "India", "Category": "Major City", "lat": 30.93156409, "long": 74.6166335, "elev": 191.851, "CountryID": 99, "LayerOrder": "2,3", "Colour": "Red", "TextColour": "Red" }, "geometry": { "type": "Point", "coordinates": [ 74.6166335, 30.93156409 ] } },
{ "type": "Feature", "properties": { "Id": 279, "Name": "Jullundur", "Abbr_3": "JDR", "Country": "India", "Category": "City", "lat": 31.33949063, "long": 75.57770952, "elev": -0.009659, "CountryID": 99, "LayerOrder": "3", "Colour": "Red", "TextColour": "Red" }, "geometry": { "type": "Point", "coordinates": [ 75.57770952, 31.33949063 ] } },
{ "type": "Feature", "properties": { "Id": 283, "Name": "Junagadh", "Abbr_3": "JGH", "Country": "India", "Category": "City", "lat": 21.5427059, "long": 70.46878818, "elev": -2068.007507, "CountryID": 99, "LayerOrder": "3", "Colour": "Red", "TextColour": "Red" }, "geometry": { "type": "Point", "coordinates": [ 70.46878818, 21.5427059 ] } },
{ "type": "Feature", "properties": { "Id": 285, "Name": "Chandigarh", "Abbr_3": "CGH", "Country": "India", "Category": "Major City", "lat": 30.761904, "long": 76.89878159, "elev": -0.001042, "CountryID": 99, "LayerOrder": "2,3", "Colour": "Red", "TextColour": "Red" }, "geometry": { "type": "Point", "coordinates": [ 76.89878159, 30.761904 ] } },
{ "type": "Feature", "properties": { "Id": 288, "Name": "Rohtak", "Abbr_3": "ROH", "Country": "India", "Category": "City", "lat": 28.90829694, "long": 76.57081847000001, "elev": -0.011681, "CountryID": 99, "LayerOrder": "3", "Colour": "Red", "TextColour": "Red" }, "geometry": { "type": "Point", "coordinates": [ 76.57081847, 28.90829694 ] } },
{ "type": "Feature", "properties": { "Id": 290, "Name": "Morbi", "Abbr_3": "MRB", "Country": "India", "Category": "City", "lat": 22.84224122, "long": 70.82953714, "elev": -198.774839, "CountryID": 99, "LayerOrder": "3", "Colour": "Red", "TextColour": "Red" }, "geometry": { "type": "Point", "coordinates": [ 70.82953714, 22.84224122 ] } },
{ "type": "Feature", "properties": { "Id": 293, "Name": "Bikaner", "Abbr_3": "BNR", "Country": "India", "Category": "Major City", "lat": 28.02286026, "long": 73.30879084, "elev": -0.012712, "CountryID": 99, "LayerOrder": "2,3", "Colour": "Red", "TextColour": "Red" }, "geometry": { "type": "Point", "coordinates": [ 73.30879084, 28.02286026 ] } },
{ "type": "Feature", "properties": { "Id": 295, "Name": "Jafrabad", "Abbr_3": "JAF", "Country": "India", "Category": "City", "lat": 20.88033248, "long": 71.36453048, "elev": -3435.443025, "CountryID": 99, "LayerOrder": "3", "Colour": "Red", "TextColour": "Red" }, "geometry": { "type": "Point", "coordinates": [ 71.36453048, 20.88033248 ] } },
{ "type": "Feature", "properties": { "Id": 296, "Name": "Meerut", "Abbr_3": "MEE", "Country": "India", "Category": "City", "lat": 28.9892537, "long": 77.70387926, "elev": -0.012009, "CountryID": 99, "LayerOrder": "3", "Colour": "Red", "TextColour": "Red" }, "geometry": { "type": "Point", "coordinates": [ 77.70387926, 28.9892537 ] } },
{ "type": "Feature", "properties": { "Id": 298, "Name": "Saharanpur", "Abbr_3": "SAH", "Country": "India", "Category": "City", "lat": 29.97669927, "long": 77.56607723, "elev": -0.007916, "CountryID": 99, "LayerOrder": "3", "Colour": "Red", "TextColour": "Red" }, "geometry": { "type": "Point", "coordinates": [ 77.56607723, 29.97669927 ] } },
{ "type": "Feature", "properties": { "Id": 303, "Name": "Ganganagar", "Abbr_3": "GNR", "Country": "India", "Category": "Major City", "lat": 29.92920662, "long": 73.88872459, "elev": 166.712725, "CountryID": 99, "LayerOrder": "2,3", "Colour": "Red", "TextColour": "Red" }, "geometry": { "type": "Point", "coordinates": [ 73.88872459, 29.92920662 ] } },
{ "type": "Feature", "properties": { "Id": 304, "Name": "Mandvi", "Abbr_3": "MDV", "Country": "India", "Category": "Major City", "lat": 22.88758786, "long": 69.33980517000001, "elev": -7.725248, "CountryID": 99, "LayerOrder": "2,3", "Colour": "Red", "TextColour": "Red" }, "geometry": { "type": "Point", "coordinates": [ 69.33980517, 22.88758786 ] } },
{ "type": "Feature", "properties": { "Id": 311, "Name": "Bhuj", "Abbr_3": "BHJ", "Country": "India", "Category": "Major City", "lat": 23.29245057, "long": 69.66832294, "elev": -0.010489, "CountryID": 99, "LayerOrder": "2,3", "Colour": "Red", "TextColour": "Red" }, "geometry": { "type": "Point", "coordinates": [ 69.66832294, 23.29245057 ] } },
{ "type": "Feature", "properties": { "Id": 315, "Name": "Jaisalmer", "Abbr_3": "JLM", "Country": "India", "Category": "Major City", "lat": 26.9252687, "long": 70.92096188, "elev": 13.988808, "CountryID": 99, "LayerOrder": "2,3", "Colour": "Red", "TextColour": "Red" }, "geometry": { "type": "Point", "coordinates": [ 70.92096188, 26.9252687 ] } },
{ "type": "Feature", "properties": { "Id": 316, "Name": "Bhatinda", "Abbr_3": "BTD", "Country": "India", "Category": "Major City", "lat": 30.2194669, "long": 74.96074096, "elev": 200.168434, "CountryID": 99, "LayerOrder": "2,3", "Colour": "Red", "TextColour": "Red" }, "geometry": { "type": "Point", "coordinates": [ 74.96074096, 30.2194669 ] } },
{ "type": "Feature", "properties": { "Id": 320, "Name": "Palitana", "Abbr_3": "PAL", "Country": "India", "Category": "City", "lat": 21.52937635, "long": 71.82489731, "elev": -3386.11079, "CountryID": 99, "LayerOrder": "3", "Colour": "Red", "TextColour": "Red" }, "geometry": { "type": "Point", "coordinates": [ 71.82489731, 21.52937635 ] } },
{ "type": "Feature", "properties": { "Id": 321, "Name": "Nagaur", "Abbr_3": "NGU", "Country": "India", "Category": "City", "lat": 27.21318323, "long": 73.74283797, "elev": -0.006046, "CountryID": 99, "LayerOrder": "3", "Colour": "Red", "TextColour": "Red" }, "geometry": { "type": "Point", "coordinates": [ 73.74283797, 27.21318323 ] } },
{ "type": "Feature", "properties": { "Id": 322, "Name": "Lucknow", "Abbr_3": "LUC", "Country": "India", "Category": "Major City", "lat": 26.84208595, "long": 80.95269216, "elev": 250.0, "CountryID": 99, "LayerOrder": "2,3", "Colour": "Red", "TextColour": "Red" }, "geometry": { "type": "Point", "coordinates": [ 80.95269216, 26.84208595 ] } },
{ "type": "Feature", "properties": { "Id": 323, "Name": "Faizabad", "Abbr_3": "FAI", "Country": "India", "Category": "Major City", "lat": 26.80206921, "long": 82.12715312, "elev": 250.0, "CountryID": 99, "LayerOrder": "2,3", "Colour": "Red", "TextColour": "Red" }, "geometry": { "type": "Point", "coordinates": [ 82.12715312, 26.80206921 ] } },
{ "type": "Feature", "properties": { "Id": 324, "Name": "Katri Lakhmikhera", "Abbr_3": "KAT", "Country": "India", "Category": "City", "lat": 26.48122344, "long": 80.35593554, "elev": 250.0, "CountryID": 99, "LayerOrder": "3", "Colour": "Red", "TextColour": "Red" }, "geometry": { "type": "Point", "coordinates": [ 80.35593554, 26.48122344 ] } },
{ "type": "Feature", "properties": { "Id": 3, "Name": "Batala", "Abbr_3": "BTA", "Country": "India", "Category": "Major City", "lat": 31.81193193, "long": 75.21473127, "elev": 233.838342, "CountryID": 99, "LayerOrder": "2,3", "Colour": "Red", "TextColour": "Red" }, "geometry": { "type": "Point", "coordinates": [ 75.21473127, 31.81193193 ] } },
{ "type": "Feature", "properties": { "Id": 200, "Name": "Gurdaspur", "Abbr_3": "GDS", "Country": "India", "Category": "Major City", "lat": 32.03773119, "long": 75.400575, "elev": 259.680265, "CountryID": 99, "LayerOrder": "2,3", "Colour": "Red", "TextColour": "Red" }, "geometry": { "type": "Point", "coordinates": [ 75.400575, 32.03773119 ] } },
{ "type": "Feature", "properties": { "Id": 203, "Name": "Kathua", "Abbr_3": "KTH", "Country": "India", "Category": "Major City", "lat": 32.36179229, "long": 75.53360117, "elev": 309.275499, "CountryID": 99, "LayerOrder": "2,3", "Colour": "Red", "TextColour": "Red" }, "geometry": { "type": "Point", "coordinates": [ 75.53360117, 32.36179229 ] } },
{ "type": "Feature", "properties": { "Id": 228, "Name": "Punch", "Abbr_3": "PUN", "Country": "India", "Category": "Major City", "lat": 33.77312758, "long": 74.10935305, "elev": 1033.956034, "CountryID": 99, "LayerOrder": "2,3", "Colour": "Red", "TextColour": "Red" }, "geometry": { "type": "Point", "coordinates": [ 74.10935305, 33.77312758 ] } },
{ "type": "Feature", "properties": { "Id": 241, "Name": "Leh", "Abbr_3": "LEH", "Country": "India", "Category": "City", "lat": 34.16839994, "long": 77.59403222, "elev": 3629.984902, "CountryID": 99, "LayerOrder": "3", "Colour": "Red", "TextColour": "Red" }, "geometry": { "type": "Point", "coordinates": [ 77.59403222, 34.16839994 ] } },
{ "type": "Feature", "properties": { "Id": 246, "Name": "Amritsar", "Abbr_3": "AMT", "Country": "India", "Category": "Major City", "lat": 31.62362389, "long": 74.88402423, "elev": 226.570982, "CountryID": 99, "LayerOrder": "2,3", "Colour": "Red", "TextColour": "Red" }, "geometry": { "type": "Point", "coordinates": [ 74.88402423, 31.62362389 ] } },
{ "type": "Feature", "properties": { "Id": 264, "Name": "Jammu", "Abbr_3": "JMU", "Country": "India", "Category": "Major City", "lat": 32.73689905, "long": 74.87883167, "elev": 295.148552, "CountryID": 99, "LayerOrder": "2,3", "Colour": "Red", "TextColour": "Red" }, "geometry": { "type": "Point", "coordinates": [ 74.87883167, 32.73689905 ] } },
{ "type": "Feature", "properties": { "Id": 278, "Name": "Udampur", "Abbr_3": "UDA", "Country": "India", "Category": "Major City", "lat": 33.09000003, "long": 74.84162404, "elev": 528.740612, "CountryID": 99, "LayerOrder": "2,3", "Colour": "Red", "TextColour": "Red" }, "geometry": { "type": "Point", "coordinates": [ 74.84162404, 33.09000003 ] } },
{ "type": "Feature", "properties": { "Id": 301, "Name": "Sopur", "Abbr_3": "SOP", "Country": "India", "Category": "Major City", "lat": 34.19752428, "long": 74.36665959, "elev": 1617.067854, "CountryID": 99, "LayerOrder": "2,3", "Colour": "Red", "TextColour": "Red" }, "geometry": { "type": "Point", "coordinates": [ 74.36665959, 34.19752428 ] } },
{ "type": "Feature", "properties": { "Id": 308, "Name": "Utip", "Abbr_3": "UTI", "Country": "India", "Category": "Major City", "lat": 32.56050377, "long": 76.13718405, "elev": 1373.516256, "CountryID": 99, "LayerOrder": "2,3", "Colour": "Red", "TextColour": "Red" }, "geometry": { "type": "Point", "coordinates": [ 76.13718405, 32.56050377 ] } },
{ "type": "Feature", "properties": { "Id": 313, "Name": "Ladakh", "Abbr_3": "LAD", "Country": "India", "Category": "Major City", "lat": 34.43333444, "long": 75.77925089, "elev": 3171.393872, "CountryID": 99, "LayerOrder": "2,3", "Colour": "Red", "TextColour": "Red" }, "geometry": { "type": "Point", "coordinates": [ 75.77925089, 34.43333444 ] } },
{ "type": "Feature", "properties": { "Id": 314, "Name": "Srinagar", "Abbr_3": "SNG", "Country": "India", "Category": "Major City", "lat": 34.08966505, "long": 74.82033765, "elev": 1581.482592, "CountryID": 99, "LayerOrder": "2,3", "Colour": "Red", "TextColour": "Red" }, "geometry": { "type": "Point", "coordinates": [ 74.82033765, 34.08966505 ] } },
{ "type": "Feature", "properties": { "Id": 319, "Name": "Anantnag", "Abbr_3": "ANG", "Country": "India", "Category": "Major City", "lat": 33.72952089, "long": 75.15215472, "elev": 1959.557028, "CountryID": 99, "LayerOrder": "2,3", "Colour": "Red", "TextColour": "Red" }, "geometry": { "type": "Point", "coordinates": [ 75.15215472, 33.72952089 ] } },
{ "type": "Feature", "properties": { "Id": 1, "Name": "ISLAMABAD", "Abbr_3": "ISL", "Country": "Pakistan", "Category": "Capital", "lat": 33.72724496, "long": 73.0817781, "elev": 581.635195, "CountryID": 165, "LayerOrder": "1,2", "Colour": "Blue", "TextColour": "Blue" }, "geometry": { "type": "Point", "coordinates": [ 73.0817781, 33.72724496 ] } },
{ "type": "Feature", "properties": { "Id": 2, "Name": "NEW DELHI", "Abbr_3": "DEL", "Country": "India", "Category": "Capital", "lat": 28.65851137, "long": 77.20552421, "elev": -0.00623, "CountryID": 99, "LayerOrder": "1,2", "Colour": "Red", "TextColour": "Red" }, "geometry": { "type": "Point", "coordinates": [ 77.20552421, 28.65851137 ] } },
{ "type": "Feature", "properties": { "Id": 3, "Name": "KABUL", "Abbr_3": "KAB", "Country": "Afghanistan", "Category": "Capital", "lat": 34.49824618, "long": 69.22588944, "elev": 1790.406016, "CountryID": 1, "LayerOrder": "1,2", "Colour": "Green", "TextColour": "Green" }, "geometry": { "type": "Point", "coordinates": [ 69.22588944, 34.49824618 ] } },
{ "type": "Feature", "properties": { "Id": 4, "Name": "DUSHANBE", "Abbr_3": "DUS", "Country": "Tajikistan", "Category": "Capital", "lat": 38.59583734, "long": 68.81782285, "elev": -78.612202, "CountryID": 0, "LayerOrder": "1,2", "Colour": "Others", "TextColour": "Others" }, "geometry": { "type": "Point", "coordinates": [ 68.81782285, 38.59583734 ] } },
{ "type": "Feature", "properties": { "Id": 0, "Name": "AbbaKhel", "Abbr_3": "ABK", "Country": "Pakistan", "Category": "City", "lat": 32.56353, "long": 70.82701, "elev": 294.079044, "CountryID": 165, "LayerOrder": "3", "Colour": "Blue", "TextColour": "Blue" }, "geometry": { "type": "Point", "coordinates": [ 70.82701, 32.56353 ] } },
{ "type": "Feature", "properties": { "Id": 0, "Name": "Abbotabad", "Abbr_3": "ABT", "Country": "Pakistan", "Category": "Major City", "lat": 34.17004, "long": 73.22521, "elev": 1204.9998, "CountryID": 165, "LayerOrder": "2,3", "Colour": "Blue", "TextColour": "Blue" }, "geometry": { "type": "Point", "coordinates": [ 73.22521, 34.17004 ] } },
{ "type": "Feature", "properties": { "Id": 0, "Name": "AdhiKot", "Abbr_3": "ADK", "Country": "Pakistan", "Category": "City", "lat": 32.10406, "long": 71.80476, "elev": 178.822913, "CountryID": 165, "LayerOrder": "3", "Colour": "Blue", "TextColour": "Blue" }, "geometry": { "type": "Point", "coordinates": [ 71.80476, 32.10406 ] } },
{ "type": "Feature", "properties": { "Id": 0, "Name": "Akwal", "Abbr_3": "AKW", "Country": "Pakistan", "Category": "City", "lat": 32.94636, "long": 72.35609, "elev": 453.835927, "CountryID": 165, "LayerOrder": "3", "Colour": "Blue", "TextColour": "Blue" }, "geometry": { "type": "Point", "coordinates": [ 72.35609, 32.94636 ] } },
{ "type": "Feature", "properties": { "Id": 0, "Name": "AmaKhel", "Abbr_3": "AMK", "Country": "Pakistan", "Category": "City", "lat": 32.37892, "long": 70.52501, "elev": 253.856347, "CountryID": 165, "LayerOrder": "3", "Colour": "Blue", "TextColour": "Blue" }, "geometry": { "type": "Point", "coordinates": [ 70.52501, 32.37892 ] } },
{ "type": "Feature", "properties": { "Id": 0, "Name": "AhmadpurEast", "Abbr_3": "APE", "Country": "Pakistan", "Category": "City", "lat": 29.09899, "long": 71.27124, "elev": 97.417605, "CountryID": 165, "LayerOrder": "3", "Colour": "Blue", "TextColour": "Blue" }, "geometry": { "type": "Point", "coordinates": [ 71.27124, 29.09899 ] } },
{ "type": "Feature", "properties": { "Id": 0, "Name": "AhmadpurSial", "Abbr_3": "APS", "Country": "Pakistan", "Category": "City", "lat": 30.68066, "long": 71.76388, "elev": 126.259978, "CountryID": 165, "LayerOrder": "3", "Colour": "Blue", "TextColour": "Blue" }, "geometry": { "type": "Point", "coordinates": [ 71.76388, 30.68066 ] } },
{ "type": "Feature", "properties": { "Id": 0, "Name": "Arifwala", "Abbr_3": "AWL", "Country": "Pakistan", "Category": "City", "lat": 30.2876, "long": 73.0615, "elev": 151.289856, "CountryID": 165, "LayerOrder": "3", "Colour": "Blue", "TextColour": "Blue" }, "geometry": { "type": "Point", "coordinates": [ 73.0615, 30.2876 ] } },
{ "type": "Feature", "properties": { "Id": 0, "Name": "Bucheke", "Abbr_3": "BCH", "Country": "Pakistan", "Category": "City", "lat": 31.30537, "long": 73.65895, "elev": 188.625609, "CountryID": 165, "LayerOrder": "3", "Colour": "Blue", "TextColour": "Blue" }, "geometry": { "type": "Point", "coordinates": [ 73.65895, 31.30537 ] } },
{ "type": "Feature", "properties": { "Id": 0, "Name": "Badrah", "Abbr_3": "BDR", "Country": "Pakistan", "Category": "City", "lat": 27.32963, "long": 68.02149, "elev": 50.607259, "CountryID": 165, "LayerOrder": "3", "Colour": "Blue", "TextColour": "Blue" }, "geometry": { "type": "Point", "coordinates": [ 68.02149, 27.32963 ] } },
{ "type": "Feature", "properties": { "Id": 0, "Name": "Baffa", "Abbr_3": "BFA", "Country": "Pakistan", "Category": "City", "lat": 34.43838, "long": 73.21872, "elev": 915.857062, "CountryID": 165, "LayerOrder": "3", "Colour": "Blue", "TextColour": "Blue" }, "geometry": { "type": "Point", "coordinates": [ 73.21872, 34.43838 ] } },
{ "type": "Feature", "properties": { "Id": 0, "Name": "Bhaun", "Abbr_3": "BHN", "Country": "Pakistan", "Category": "City", "lat": 32.85752, "long": 72.75667, "elev": 582.08812, "CountryID": 165, "LayerOrder": "3", "Colour": "Blue", "TextColour": "Blue" }, "geometry": { "type": "Point", "coordinates": [ 72.75667, 32.85752 ] } },
{ "type": "Feature", "properties": { "Id": 0, "Name": "Bhera", "Abbr_3": "BHR", "Country": "Pakistan", "Category": "City", "lat": 32.48159, "long": 72.91026, "elev": 197.735359, "CountryID": 165, "LayerOrder": "3", "Colour": "Blue", "TextColour": "Blue" }, "geometry": { "type": "Point", "coordinates": [ 72.91026, 32.48159 ] } },
{ "type": "Feature", "properties": { "Id": 0, "Name": "BuriKhel", "Abbr_3": "BKH", "Country": "Pakistan", "Category": "City", "lat": 32.71233, "long": 71.74095, "elev": 288.340309, "CountryID": 165, "LayerOrder": "3", "Colour": "Blue", "TextColour": "Blue" }, "geometry": { "type": "Point", "coordinates": [ 71.74095, 32.71233 ] } },
{ "type": "Feature", "properties": { "Id": 0, "Name": "Bhakkar", "Abbr_3": "BKR", "Country": "Pakistan", "Category": "City", "lat": 31.62354, "long": 71.06529, "elev": 172.009917, "CountryID": 165, "LayerOrder": "3", "Colour": "Blue", "TextColour": "Blue" }, "geometry": { "type": "Point", "coordinates": [ 71.06529, 31.62354 ] } },
{ "type": "Feature", "properties": { "Id": 0, "Name": "BandKurai", "Abbr_3": "BKR", "Country": "Pakistan", "Category": "City", "lat": 32.04037, "long": 70.90404, "elev": 177.336175, "CountryID": 165, "LayerOrder": "3", "Colour": "Blue", "TextColour": "Blue" }, "geometry": { "type": "Point", "coordinates": [ 70.90404, 32.04037 ] } },
{ "type": "Feature", "properties": { "Id": 0, "Name": "Bela", "Abbr_3": "BLA", "Country": "Pakistan", "Category": "City", "lat": 26.22595, "long": 66.31863, "elev": 77.349713, "CountryID": 165, "LayerOrder": "3", "Colour": "Blue", "TextColour": "Blue" }, "geometry": { "type": "Point", "coordinates": [ 66.31863, 26.22595 ] } },
{ "type": "Feature", "properties": { "Id": 0, "Name": "Balkasar", "Abbr_3": "BLK", "Country": "Pakistan", "Category": "City", "lat": 32.96584, "long": 72.66517, "elev": 524.383075, "CountryID": 165, "LayerOrder": "3", "Colour": "Blue", "TextColour": "Blue" }, "geometry": { "type": "Point", "coordinates": [ 72.66517, 32.96584 ] } },
{ "type": "Feature", "properties": { "Id": 0, "Name": "Bhalwal", "Abbr_3": "BLW", "Country": "Pakistan", "Category": "City", "lat": 32.26443, "long": 72.89799, "elev": 193.151211, "CountryID": 165, "LayerOrder": "3", "Colour": "Blue", "TextColour": "Blue" }, "geometry": { "type": "Point", "coordinates": [ 72.89799, 32.26443 ] } },
{ "type": "Feature", "properties": { "Id": 0, "Name": "Bandial", "Abbr_3": "BND", "Country": "Pakistan", "Category": "City", "lat": 32.35385, "long": 71.82147, "elev": 184.596017, "CountryID": 165, "LayerOrder": "3", "Colour": "Blue", "TextColour": "Blue" }, "geometry": { "type": "Point", "coordinates": [ 71.82147, 32.35385 ] } },
{ "type": "Feature", "properties": { "Id": 0, "Name": "Bahawalnagar", "Abbr_3": "BNG", "Country": "Pakistan", "Category": "City", "lat": 29.99621, "long": 73.25122, "elev": 151.967987, "CountryID": 165, "LayerOrder": "3", "Colour": "Blue", "TextColour": "Blue" }, "geometry": { "type": "Point", "coordinates": [ 73.25122, 29.99621 ] } },
{ "type": "Feature", "properties": { "Id": 0, "Name": "Bannu", "Abbr_3": "BNU", "Country": "Pakistan", "Category": "City", "lat": 32.98756, "long": 70.6056, "elev": 377.383009, "CountryID": 165, "LayerOrder": "3", "Colour": "Blue", "TextColour": "Blue" }, "geometry": { "type": "Point", "coordinates": [ 70.6056, 32.98756 ] } },
{ "type": "Feature", "properties": { "Id": 0, "Name": "Bholari", "Abbr_3": "BOL", "Country": "Pakistan", "Category": "City", "lat": 25.33279, "long": 68.22151, "elev": 43.935988, "CountryID": 165, "LayerOrder": "3", "Colour": "Blue", "TextColour": "Blue" }, "geometry": { "type": "Point", "coordinates": [ 68.22151, 25.33279 ] } },
{ "type": "Feature", "properties": { "Id": 0, "Name": "Bahawalpur", "Abbr_3": "BPR", "Country": "Pakistan", "Category": "Major City", "lat": 29.39247, "long": 71.66954, "elev": 111.776195, "CountryID": 165, "LayerOrder": "2,3", "Colour": "Blue", "TextColour": "Blue" }, "geometry": { "type": "Point", "coordinates": [ 71.66954, 29.39247 ] } },
{ "type": "Feature", "properties": { "Id": 0, "Name": "Basal", "Abbr_3": "BSL", "Country": "Pakistan", "Category": "City", "lat": 33.55349, "long": 72.26057, "elev": 393.352303, "CountryID": 165, "LayerOrder": "3", "Colour": "Blue", "TextColour": "Blue" }, "geometry": { "type": "Point", "coordinates": [ 72.26057, 33.55349 ] } },
{ "type": "Feature", "properties": { "Id": 0, "Name": "Burewala", "Abbr_3": "BWL", "Country": "Pakistan", "Category": "City", "lat": 30.15554, "long": 72.68126, "elev": 135.066037, "CountryID": 165, "LayerOrder": "3", "Colour": "Blue", "TextColour": "Blue" }, "geometry": { "type": "Point", "coordinates": [ 72.68126, 30.15554 ] } },
{ "type": "Feature", "properties": { "Id": 0, "Name": "Bhawana", "Abbr_3": "BWN", "Country": "Pakistan", "Category": "City", "lat": 31.56845, "long": 72.64538, "elev": 162.833465, "CountryID": 165, "LayerOrder": "3", "Colour": "Blue", "TextColour": "Blue" }, "geometry": { "type": "Point", "coordinates": [ 72.64538, 31.56845 ] } },
{ "type": "Feature", "properties": { "Id": 0, "Name": "Chhab", "Abbr_3": "CHB", "Country": "Pakistan", "Category": "City", "lat": 33.25, "long": 71.88333, "elev": 426.80087, "CountryID": 165, "LayerOrder": "3", "Colour": "Blue", "TextColour": "Blue" }, "geometry": { "type": "Point", "coordinates": [ 71.88333, 33.25 ] } },
{ "type": "Feature", "properties": { "Id": 0, "Name": "Chakoth", "Abbr_3": "CKT", "Country": "Pakistan", "Category": "City", "lat": 34.08977, "long": 73.84475, "elev": 2265.035774, "CountryID": 165, "LayerOrder": "3", "Colour": "Blue", "TextColour": "Blue" }, "geometry": { "type": "Point", "coordinates": [ 73.84475, 34.08977 ] } },
{ "type": "Feature", "properties": { "Id": 0, "Name": "Chakwal", "Abbr_3": "CKW", "Country": "Pakistan", "Category": "City", "lat": 32.93127, "long": 72.86258, "elev": 517.445924, "CountryID": 165, "LayerOrder": "3", "Colour": "Blue", "TextColour": "Blue" }, "geometry": { "type": "Point", "coordinates": [ 72.86258, 32.93127 ] } },
{ "type": "Feature", "properties": { "Id": 0, "Name": "Chilas", "Abbr_3": "CLS", "Country": "Pakistan", "Category": "City", "lat": 35.42272, "long": 74.08843, "elev": 1164.506811, "CountryID": 165, "LayerOrder": "3", "Colour": "Blue", "TextColour": "Blue" }, "geometry": { "type": "Point", "coordinates": [ 74.08843, 35.42272 ] } },
{ "type": "Feature", "properties": { "Id": 0, "Name": "Chaman", "Abbr_3": "CMN", "Country": "Pakistan", "Category": "City", "lat": 30.92481, "long": 66.44435, "elev": 1317.275409, "CountryID": 165, "LayerOrder": "3", "Colour": "Blue", "TextColour": "Blue" }, "geometry": { "type": "Point", "coordinates": [ 66.44435, 30.92481 ] } },
{ "type": "Feature", "properties": { "Id": 0, "Name": "Chiniot", "Abbr_3": "CNT", "Country": "Pakistan", "Category": "City", "lat": 31.72044, "long": 72.98184, "elev": 183.63413, "CountryID": 165, "LayerOrder": "3", "Colour": "Blue", "TextColour": "Blue" }, "geometry": { "type": "Point", "coordinates": [ 72.98184, 31.72044 ] } },
{ "type": "Feature", "properties": { "Id": 0, "Name": "Chitral", "Abbr_3": "CRT", "Country": "Pakistan", "Category": "City", "lat": 35.84445, "long": 71.77954, "elev": 1516.148529, "CountryID": 165, "LayerOrder": "3", "Colour": "Blue", "TextColour": "Blue" }, "geometry": { "type": "Point", "coordinates": [ 71.77954, 35.84445 ] } },
{ "type": "Feature", "properties": { "Id": 0, "Name": "Cherat", "Abbr_3": "CRT", "Country": "Pakistan", "Category": "City", "lat": 33.8199, "long": 71.88756, "elev": 1269.218283, "CountryID": 165, "LayerOrder": "3", "Colour": "Blue", "TextColour": "Blue" }, "geometry": { "type": "Point", "coordinates": [ 71.88756, 33.8199 ] } },
{ "type": "Feature", "properties": { "Id": 0, "Name": "Charsadda", "Abbr_3": "CSD", "Country": "Pakistan", "Category": "City", "lat": 34.15541, "long": 71.74925, "elev": 298.661493, "CountryID": 165, "LayerOrder": "3", "Colour": "Blue", "TextColour": "Blue" }, "geometry": { "type": "Point", "coordinates": [ 71.74925, 34.15541 ] } },
{ "type": "Feature", "properties": { "Id": 0, "Name": "Chashma", "Abbr_3": "CSM", "Country": "Pakistan", "Category": "City", "lat": 32.42002, "long": 71.4527, "elev": 202.656075, "CountryID": 165, "LayerOrder": "3", "Colour": "Blue", "TextColour": "Blue" }, "geometry": { "type": "Point", "coordinates": [ 71.4527, 32.42002 ] } },
{ "type": "Feature", "properties": { "Id": 0, "Name": "ChistianMandi", "Abbr_3": "CST", "Country": "Pakistan", "Category": "City", "lat": 29.78972, "long": 72.85606, "elev": 134.761452, "CountryID": 165, "LayerOrder": "3", "Colour": "Blue", "TextColour": "Blue" }, "geometry": { "type": "Point", "coordinates": [ 72.85606, 29.78972 ] } },
{ "type": "Feature", "properties": { "Id": 0, "Name": "Chichawatni", "Abbr_3": "CWT", "Country": "Pakistan", "Category": "City", "lat": 30.52868, "long": 72.68626, "elev": 162.825336, "CountryID": 165, "LayerOrder": "3", "Colour": "Blue", "TextColour": "Blue" }, "geometry": { "type": "Point", "coordinates": [ 72.68626, 30.52868 ] } },
{ "type": "Feature", "properties": { "Id": 0, "Name": "Dadu", "Abbr_3": "DAD", "Country": "Pakistan", "Category": "City", "lat": 24.95199, "long": 68.34445, "elev": 9.147995, "CountryID": 165, "LayerOrder": "3", "Colour": "Blue", "TextColour": "Blue" }, "geometry": { "type": "Point", "coordinates": [ 68.34445, 24.95199 ] } },
{ "type": "Feature", "properties": { "Id": 0, "Name": "Dalbandin", "Abbr_3": "DBD", "Country": "Pakistan", "Category": "City", "lat": 28.8755, "long": 64.40543, "elev": 843.554394, "CountryID": 165, "LayerOrder": "3", "Colour": "Blue", "TextColour": "Blue" }, "geometry": { "type": "Point", "coordinates": [ 64.40543, 28.8755 ] } },
{ "type": "Feature", "properties": { "Id": 0, "Name": "DungaBunga", "Abbr_3": "DBG", "Country": "Pakistan", "Category": "City", "lat": 29.74361, "long": 73.24179, "elev": 145.991038, "CountryID": 165, "LayerOrder": "3", "Colour": "Blue", "TextColour": "Blue" }, "geometry": { "type": "Point", "coordinates": [ 73.24179, 29.74361 ] } },
{ "type": "Feature", "properties": { "Id": 0, "Name": "Dhudial", "Abbr_3": "DDL", "Country": "Pakistan", "Category": "City", "lat": 33.06283, "long": 72.97549, "elev": 524.982424, "CountryID": 165, "LayerOrder": "3", "Colour": "Blue", "TextColour": "Blue" }, "geometry": { "type": "Point", "coordinates": [ 72.97549, 33.06283 ] } },
{ "type": "Feature", "properties": { "Id": 0, "Name": "DairaDinPanh", "Abbr_3": "DDP", "Country": "Pakistan", "Category": "City", "lat": 30.56536, "long": 70.93898, "elev": 128.636575, "CountryID": 165, "LayerOrder": "3", "Colour": "Blue", "TextColour": "Blue" }, "geometry": { "type": "Point", "coordinates": [ 70.93898, 30.56536 ] } },
{ "type": "Feature", "properties": { "Id": 0, "Name": "Dadu", "Abbr_3": "DAD", "Country": "Pakistan", "Category": "City", "lat": 26.7261, "long": 67.78007, "elev": 38.822204, "CountryID": 165, "LayerOrder": "3", "Colour": "Blue", "TextColour": "Blue" }, "geometry": { "type": "Point", "coordinates": [ 67.78007, 26.7261 ] } },
{ "type": "Feature", "properties": { "Id": 0, "Name": "DeraGhaziKhan", "Abbr_3": "DGK", "Country": "Pakistan", "Category": "City", "lat": 30.05678, "long": 70.63976, "elev": 125.29357, "CountryID": 165, "LayerOrder": "3", "Colour": "Blue", "TextColour": "Blue" }, "geometry": { "type": "Point", "coordinates": [ 70.63976, 30.05678 ] } },
{ "type": "Feature", "properties": { "Id": 0, "Name": "DeraIsmailKhan", "Abbr_3": "DIK", "Country": "Pakistan", "Category": "City", "lat": 31.9118, "long": 70.89197, "elev": 170.909498, "CountryID": 165, "LayerOrder": "3", "Colour": "Blue", "TextColour": "Blue" }, "geometry": { "type": "Point", "coordinates": [ 70.89197, 31.9118 ] } },
{ "type": "Feature", "properties": { "Id": 0, "Name": "Dir", "Abbr_3": "DIR", "Country": "Pakistan", "Category": "City", "lat": 35.2004, "long": 71.8715, "elev": 1410.717583, "CountryID": 165, "LayerOrder": "3", "Colour": "Blue", "TextColour": "Blue" }, "geometry": { "type": "Point", "coordinates": [ 71.8715, 35.2004 ] } },
{ "type": "Feature", "properties": { "Id": 0, "Name": "DaryaKhan", "Abbr_3": "DKN", "Country": "Pakistan", "Category": "City", "lat": 31.79066, "long": 71.10459, "elev": 175.285987, "CountryID": 165, "LayerOrder": "3", "Colour": "Blue", "TextColour": "Blue" }, "geometry": { "type": "Point", "coordinates": [ 71.10459, 31.79066 ] } },
{ "type": "Feature", "properties": { "Id": 0, "Name": "DeraNawabsa", "Abbr_3": "DNB", "Country": "Pakistan", "Category": "City", "lat": 29.14091, "long": 71.26181, "elev": 103.275746, "CountryID": 165, "LayerOrder": "3", "Colour": "Blue", "TextColour": "Blue" }, "geometry": { "type": "Point", "coordinates": [ 71.26181, 29.14091 ] } },
{ "type": "Feature", "properties": { "Id": 0, "Name": "Dipalpur", "Abbr_3": "DPR", "Country": "Pakistan", "Category": "City", "lat": 30.66494, "long": 73.65371, "elev": 179.01446, "CountryID": 165, "LayerOrder": "3", "Colour": "Blue", "TextColour": "Blue" }, "geometry": { "type": "Point", "coordinates": [ 73.65371, 30.66494 ] } },
{ "type": "Feature", "properties": { "Id": 0, "Name": "DhokPathan", "Abbr_3": "DPT", "Country": "Pakistan", "Category": "City", "lat": 33.13091, "long": 72.34621, "elev": 304.384134, "CountryID": 165, "LayerOrder": "3", "Colour": "Blue", "TextColour": "Blue" }, "geometry": { "type": "Point", "coordinates": [ 72.34621, 33.13091 ] } },
{ "type": "Feature", "properties": { "Id": 0, "Name": "Dulla", "Abbr_3": "DUL", "Country": "Pakistan", "Category": "City", "lat": 33.15603, "long": 72.69227, "elev": 343.499996, "CountryID": 165, "LayerOrder": "3", "Colour": "Blue", "TextColour": "Blue" }, "geometry": { "type": "Point", "coordinates": [ 72.69227, 33.15603 ] } },
{ "type": "Feature", "properties": { "Id": 0, "Name": "FortAbbas", "Abbr_3": "FAB", "Country": "Pakistan", "Category": "City", "lat": 29.1913, "long": 72.85703, "elev": 141.263611, "CountryID": 165, "LayerOrder": "3", "Colour": "Blue", "TextColour": "Blue" }, "geometry": { "type": "Point", "coordinates": [ 72.85703, 29.1913 ] } },
{ "type": "Feature", "properties": { "Id": 0, "Name": "Fatehjang", "Abbr_3": "FJG", "Country": "Pakistan", "Category": "City", "lat": 33.56466, "long": 72.65213, "elev": 495.3152, "CountryID": 165, "LayerOrder": "3", "Colour": "Blue", "TextColour": "Blue" }, "geometry": { "type": "Point", "coordinates": [ 72.65213, 33.56466 ] } },
{ "type": "Feature", "properties": { "Id": 0, "Name": "Ghaibidero", "Abbr_3": "GBD", "Country": "Pakistan", "Category": "City", "lat": 27.59835, "long": 67.65047, "elev": 33.084232, "CountryID": 165, "LayerOrder": "3", "Colour": "Blue", "TextColour": "Blue" }, "geometry": { "type": "Point", "coordinates": [ 67.65047, 27.59835 ] } },
{ "type": "Feature", "properties": { "Id": 0, "Name": "Gobindsar", "Abbr_3": "GBS", "Country": "Pakistan", "Category": "City", "lat": 31.2561, "long": 73.17261, "elev": 168.679158, "CountryID": 165, "LayerOrder": "3", "Colour": "Blue", "TextColour": "Blue" }, "geometry": { "type": "Point", "coordinates": [ 73.17261, 31.2561 ] } },
{ "type": "Feature", "properties": { "Id": 0, "Name": "Gumbat", "Abbr_3": "GBT", "Country": "Pakistan", "Category": "City", "lat": 33.49206, "long": 71.67293, "elev": 424.244425, "CountryID": 165, "LayerOrder": "3", "Colour": "Blue", "TextColour": "Blue" }, "geometry": { "type": "Point", "coordinates": [ 71.67293, 33.49206 ] } },
{ "type": "Feature", "properties": { "Id": 0, "Name": "GujarKhan", "Abbr_3": "GJK", "Country": "Pakistan", "Category": "City", "lat": 33.25427, "long": 73.30927, "elev": 452.353581, "CountryID": 165, "LayerOrder": "3", "Colour": "Blue", "TextColour": "Blue" }, "geometry": { "type": "Point", "coordinates": [ 73.30927, 33.25427 ] } },
{ "type": "Feature", "properties": { "Id": 0, "Name": "Gujrat", "Abbr_3": "GJT", "Country": "Pakistan", "Category": "Major City", "lat": 32.57344, "long": 74.08271, "elev": 224.616299, "CountryID": 165, "LayerOrder": "2,3", "Colour": "Blue", "TextColour": "Blue" }, "geometry": { "type": "Point", "coordinates": [ 74.08271, 32.57344 ] } },
{ "type": "Feature", "properties": { "Id": 0, "Name": "GandiKhanKhel", "Abbr_3": "GKK", "Country": "Pakistan", "Category": "City", "lat": 32.74601, "long": 70.76832, "elev": 275.409786, "CountryID": 165, "LayerOrder": "3", "Colour": "Blue", "TextColour": "Blue" }, "geometry": { "type": "Point", "coordinates": [ 70.76832, 32.74601 ] } },
{ "type": "Feature", "properties": { "Id": 0, "Name": "GulIman", "Abbr_3": "GMN", "Country": "Pakistan", "Category": "City", "lat": 32.26153, "long": 70.53142, "elev": 237.483, "CountryID": 165, "LayerOrder": "3", "Colour": "Blue", "TextColour": "Blue" }, "geometry": { "type": "Point", "coordinates": [ 70.53142, 32.26153 ] } },
{ "type": "Feature", "properties": { "Id": 0, "Name": "Gunjyal", "Abbr_3": "GNJ", "Country": "Pakistan", "Category": "City", "lat": 32.33773, "long": 71.89598, "elev": 188.12862, "CountryID": 165, "LayerOrder": "3", "Colour": "Blue", "TextColour": "Blue" }, "geometry": { "type": "Point", "coordinates": [ 71.89598, 32.33773 ] } },
{ "type": "Feature", "properties": { "Id": 0, "Name": "Gojra", "Abbr_3": "GOJ", "Country": "Pakistan", "Category": "City", "lat": 31.14919, "long": 72.68521, "elev": 168.838807, "CountryID": 165, "LayerOrder": "3", "Colour": "Blue", "TextColour": "Blue" }, "geometry": { "type": "Point", "coordinates": [ 72.68521, 31.14919 ] } },
{ "type": "Feature", "properties": { "Id": 0, "Name": "Gharo", "Abbr_3": "GRO", "Country": "Pakistan", "Category": "City", "lat": 24.73708, "long": 67.58541, "elev": 5.299997, "CountryID": 165, "LayerOrder": "3", "Colour": "Blue", "TextColour": "Blue" }, "geometry": { "type": "Point", "coordinates": [ 67.58541, 24.73708 ] } },
{ "type": "Feature", "properties": { "Id": 0, "Name": "GarhiYasin", "Abbr_3": "GRY", "Country": "Pakistan", "Category": "City", "lat": 27.90662, "long": 68.51596, "elev": 52.743234, "CountryID": 165, "LayerOrder": "3", "Colour": "Blue", "TextColour": "Blue" }, "geometry": { "type": "Point", "coordinates": [ 68.51596, 27.90662 ] } },
{ "type": "Feature", "properties": { "Id": 0, "Name": "Ghotki", "Abbr_3": "GTK", "Country": "Pakistan", "Category": "City", "lat": 28.0059, "long": 69.32154, "elev": 62.302392, "CountryID": 165, "LayerOrder": "3", "Colour": "Blue", "TextColour": "Blue" }, "geometry": { "type": "Point", "coordinates": [ 69.32154, 28.0059 ] } },
{ "type": "Feature", "properties": { "Id": 0, "Name": "Gwadar", "Abbr_3": "GWD", "Country": "Pakistan", "Category": "Major City", "lat": 25.11915, "long": 62.3218, "elev": 3.428399, "CountryID": 165, "LayerOrder": "2,3", "Colour": "Blue", "TextColour": "Blue" }, "geometry": { "type": "Point", "coordinates": [ 62.3218, 25.11915 ] } },
{ "type": "Feature", "properties": { "Id": 0, "Name": "Gujranwala", "Abbr_3": "GWL", "Country": "Pakistan", "Category": "Major City", "lat": 32.1717, "long": 74.18846, "elev": 224.47332, "CountryID": 165, "LayerOrder": "2,3", "Colour": "Blue", "TextColour": "Blue" }, "geometry": { "type": "Point", "coordinates": [ 74.18846, 32.1717 ] } },
{ "type": "Feature", "properties": { "Id": 0, "Name": "Haidarabad", "Abbr_3": "HBD", "Country": "Pakistan", "Category": "City", "lat": 31.34729, "long": 71.6968, "elev": 153.765702, "CountryID": 165, "LayerOrder": "3", "Colour": "Blue", "TextColour": "Blue" }, "geometry": { "type": "Point", "coordinates": [ 71.6968, 31.34729 ] } },
{ "type": "Feature", "properties": { "Id": 0, "Name": "Hafizabad", "Abbr_3": "HBD", "Country": "Pakistan", "Category": "City", "lat": 32.06843, "long": 73.68935, "elev": 206.603328, "CountryID": 165, "LayerOrder": "3", "Colour": "Blue", "TextColour": "Blue" }, "geometry": { "type": "Point", "coordinates": [ 73.68935, 32.06843 ] } },
{ "type": "Feature", "properties": { "Id": 0, "Name": "Haranpur", "Abbr_3": "HPR", "Country": "Pakistan", "Category": "City", "lat": 32.606, "long": 73.159, "elev": 202.931361, "CountryID": 165, "LayerOrder": "3", "Colour": "Blue", "TextColour": "Blue" }, "geometry": { "type": "Point", "coordinates": [ 73.159, 32.606 ] } },
{ "type": "Feature", "properties": { "Id": 0, "Name": "Hyderabad", "Abbr_3": "HBD", "Country": "Pakistan", "Category": "Major City", "lat": 25.38151, "long": 68.37344, "elev": 18.999775, "CountryID": 165, "LayerOrder": "2,3", "Colour": "Blue", "TextColour": "Blue" }, "geometry": { "type": "Point", "coordinates": [ 68.37344, 25.38151 ] } },
{ "type": "Feature", "properties": { "Id": 0, "Name": "Harunabad", "Abbr_3": "HBD", "Country": "Pakistan", "Category": "City", "lat": 29.61049, "long": 73.13697, "elev": 175.605561, "CountryID": 165, "LayerOrder": "3", "Colour": "Blue", "TextColour": "Blue" }, "geometry": { "type": "Point", "coordinates": [ 73.13697, 29.61049 ] } },
{ "type": "Feature", "properties": { "Id": 0, "Name": "Hangu", "Abbr_3": "HGU", "Country": "Pakistan", "Category": "City", "lat": 33.52692, "long": 71.05984, "elev": 826.488254, "CountryID": 165, "LayerOrder": "3", "Colour": "Blue", "TextColour": "Blue" }, "geometry": { "type": "Point", "coordinates": [ 71.05984, 33.52692 ] } },
{ "type": "Feature", "properties": { "Id": 0, "Name": "Hasilpur", "Abbr_3": "HSP", "Country": "Pakistan", "Category": "City", "lat": 29.6912, "long": 72.55105, "elev": 135.370321, "CountryID": 165, "LayerOrder": "3", "Colour": "Blue", "TextColour": "Blue" }, "geometry": { "type": "Point", "coordinates": [ 72.55105, 29.6912 ] } },
{ "type": "Feature", "properties": { "Id": 0, "Name": "Haveli", "Abbr_3": "HVL", "Country": "Pakistan", "Category": "City", "lat": 30.44702, "long": 73.6996, "elev": 172.762764, "CountryID": 165, "LayerOrder": "3", "Colour": "Blue", "TextColour": "Blue" }, "geometry": { "type": "Point", "coordinates": [ 73.6996, 30.44702 ] } },
{ "type": "Feature", "properties": { "Id": 0, "Name": "Havalian", "Abbr_3": "HVL", "Country": "Pakistan", "Category": "City", "lat": 34.04461, "long": 73.13593, "elev": 819.990293, "CountryID": 165, "LayerOrder": "3", "Colour": "Blue", "TextColour": "Blue" }, "geometry": { "type": "Point", "coordinates": [ 73.13593, 34.04461 ] } },
{ "type": "Feature", "properties": { "Id": 0, "Name": "Isakhel", "Abbr_3": "IKL", "Country": "Pakistan", "Category": "City", "lat": 32.67421, "long": 71.27825, "elev": 207.426024, "CountryID": 165, "LayerOrder": "3", "Colour": "Blue", "TextColour": "Blue" }, "geometry": { "type": "Point", "coordinates": [ 71.27825, 32.67421 ] } },
{ "type": "Feature", "properties": { "Id": 0, "Name": "Islamabad", "Abbr_3": "ISB", "Country": "Pakistan", "Category": "Major City", "lat": 33.71475, "long": 73.08266, "elev": 566.411459, "CountryID": 165, "LayerOrder": "2,3", "Colour": "Blue", "TextColour": "Blue" }, "geometry": { "type": "Point", "coordinates": [ 73.08266, 33.71475 ] } },
{ "type": "Feature", "properties": { "Id": 0, "Name": "Jacobabad", "Abbr_3": "JBD", "Country": "Pakistan", "Category": "Major City", "lat": 28.27764, "long": 68.43616, "elev": 51.605792, "CountryID": 165, "LayerOrder": "2,3", "Colour": "Blue", "TextColour": "Blue" }, "geometry": { "type": "Point", "coordinates": [ 68.43616, 28.27764 ] } },
{ "type": "Feature", "properties": { "Id": 0, "Name": "Jabbi", "Abbr_3": "JBI", "Country": "Pakistan", "Category": "City", "lat": 34.416, "long": 73.416, "elev": 1359.781765, "CountryID": 165, "LayerOrder": "3", "Colour": "Blue", "TextColour": "Blue" }, "geometry": { "type": "Point", "coordinates": [ 73.416, 34.416 ] } },
{ "type": "Feature", "properties": { "Id": 0, "Name": "Jahangira", "Abbr_3": "JGR", "Country": "Pakistan", "Category": "City", "lat": 33.96489, "long": 72.2271, "elev": 289.962021, "CountryID": 165, "LayerOrder": "3", "Colour": "Blue", "TextColour": "Blue" }, "geometry": { "type": "Point", "coordinates": [ 72.2271, 33.96489 ] } },
{ "type": "Feature", "properties": { "Id": 0, "Name": "Jhelum", "Abbr_3": "JLM", "Country": "Pakistan", "Category": "Major City", "lat": 32.93325, "long": 73.72289, "elev": 210.263865, "CountryID": 165, "LayerOrder": "2,3", "Colour": "Blue", "TextColour": "Blue" }, "geometry": { "type": "Point", "coordinates": [ 73.72289, 32.93325 ] } },
{ "type": "Feature", "properties": { "Id": 0, "Name": "Jhumra", "Abbr_3": "JMR", "Country": "Pakistan", "Category": "City", "lat": 31.56531, "long": 73.18309, "elev": 181.628426, "CountryID": 165, "LayerOrder": "3", "Colour": "Blue", "TextColour": "Blue" }, "geometry": { "type": "Point", "coordinates": [ 73.18309, 31.56531 ] } },
{ "type": "Feature", "properties": { "Id": 0, "Name": "Jand", "Abbr_3": "JND", "Country": "Pakistan", "Category": "City", "lat": 33.46527, "long": 72.0, "elev": 304.799495, "CountryID": 165, "LayerOrder": "3", "Colour": "Blue", "TextColour": "Blue" }, "geometry": { "type": "Point", "coordinates": [ 72.0, 33.46527 ] } },
{ "type": "Feature", "properties": { "Id": 0, "Name": "Jhang", "Abbr_3": "JNG", "Country": "Pakistan", "Category": "City", "lat": 31.27033, "long": 72.31247, "elev": 151.64109, "CountryID": 165, "LayerOrder": "3", "Colour": "Blue", "TextColour": "Blue" }, "geometry": { "type": "Point", "coordinates": [ 72.31247, 31.27033 ] } },
{ "type": "Feature", "properties": { "Id": 0, "Name": "JalalpurNau", "Abbr_3": "JPN", "Country": "Pakistan", "Category": "City", "lat": 32.05907, "long": 73.38046, "elev": 182.382571, "CountryID": 165, "LayerOrder": "3", "Colour": "Blue", "TextColour": "Blue" }, "geometry": { "type": "Point", "coordinates": [ 73.38046, 32.05907 ] } },
{ "type": "Feature", "properties": { "Id": 0, "Name": "JalalpurPirwala", "Abbr_3": "JPP", "Country": "Pakistan", "Category": "City", "lat": 29.50088, "long": 71.22291, "elev": 100.130505, "CountryID": 165, "LayerOrder": "3", "Colour": "Blue", "TextColour": "Blue" }, "geometry": { "type": "Point", "coordinates": [ 71.22291, 29.50088 ] } },
{ "type": "Feature", "properties": { "Id": 0, "Name": "Jampur", "Abbr_3": "JPR", "Country": "Pakistan", "Category": "City", "lat": 29.64108, "long": 70.60071, "elev": 104.172106, "CountryID": 165, "LayerOrder": "3", "Colour": "Blue", "TextColour": "Blue" }, "geometry": { "type": "Point", "coordinates": [ 70.60071, 29.64108 ] } },
{ "type": "Feature", "properties": { "Id": 0, "Name": "Jaranwala", "Abbr_3": "JWL", "Country": "Pakistan", "Category": "City", "lat": 31.33576, "long": 73.42207, "elev": 189.951244, "CountryID": 165, "LayerOrder": "3", "Colour": "Blue", "TextColour": "Blue" }, "geometry": { "type": "Point", "coordinates": [ 73.42207, 31.33576 ] } },